organization_id,club_name,logo_url,sport,registration_year,country,region_code,region,province,town,postal_code,address,latitude,longitude
3d36ce54591843dfb7a062c9,A.C. Olimpia Libertas,,football,2007,ITA,PUG,Puglia,BA,Bari,04478,"Piazza Italia, 78",41.0050022,16.8462603
be1f4d86b8e24b4f80f078c6,Sporting Club Nuova Junior,,football,2008,ITA,PIE,Piemonte,TO,Torino,45118,"Via Dante, 28",45.1432039,7.7603975
19a21b86e5464e0ea0295bdf,Club San Marco Atletico,,tennis,2022,ITA,CAM,Campania,NA,Napoli,87673,"Via Garibaldi, 6",40.8639782,14.2256428
19a21b86e5464e0ea0295bdf,Club San Marco Atletico,,volleyball,2022,ITA,CAM,Campania,NA,Napoli,87673,"Via Garibaldi, 6",40.8639782,14.2256428
19a21b86e5464e0ea0295bdf,Club San Marco Atletico,,cycling,2022,ITA,CAM,Campania,NA,Napoli,87673,"Via Garibaldi, 6",40.8639782,14.2256428
141f325484f545b4810d4fbe,A.C. Libertas 2022,,tennis,2022,ITA,FVG,Friuli-Venezia Giulia,TS,Trieste,84227,"Via Garibaldi, 78",45.6078776,13.6739376
4cefd78a3faf47e886c888c2,Sporting Club San Marco Nuova,,football,2008,ITA,EMR,Emilia-Romagna,BO,Bologna,75341,"Via Garibaldi, 28",44.5822817,11.2490207
c0bf19dafa504256bd0501eb,Sporting Club Trentino-Alto Adige Sport,,volleyball,2013,ITA,TAA,Trentino-Alto Adige,TN,Trento,48447,"Piazzale dello Sport, 52",46.0472017,11.1483158
8d7f7dfe824a40bfa283a4f9,S.S.D. Atletico Bologna Sport,,tennis,2014,ITA,EMR,Emilia-Romagna,BO,Bologna,73512,"Piazza Italia, 33",44.6493844,11.3528579
9373f37e846f44f599cfd2cf,Polisportiva Trentino-Alto Adige 2021,,padel,2008,ITA,TAA,Trentino-Alto Adige,TN,Trento,24416,"Piazza Italia, 98",46.0017222,11.1581083
4e1c55cc677945d69ce19ed4,A.C. Olimpia Milano,,basketball,2011,ITA,LOM,Lombardia,MI,Milano,08592,"Via dello Sport, 31",45.3766027,9.2188551
e8aa5ef90da34bda93ea3150,Associazione Sportiva Trieste 2022,,gymnastics,2006,ITA,FVG,Friuli-Venezia Giulia,TS,Trieste,96673,"Piazza Italia, 97",45.6634714,13.6736271
bbe995210a914f71b490b0bc,Club Bari Center,,football,2018,ITA,PUG,Puglia,BA,Bari,10305,"Via Mazzini, 1",41.1425898,16.8896473
f13a6578ab8b4eef9d93e389,A.S.D. Stella Azzurra Center,,football,2018,ITA,SAR,Sardegna,CA,Cagliari,32850,"Piazzale dello Sport, 61",39.1588311,9.06011
885bf3f8eefc499fbf86de5a,S.S.D. Union Toscana 2021,,football,2023,ITA,TOS,Toscana,FI,Firenze,15322,"Viale Europa, 103",43.8211245,11.188082
885bf3f8eefc499fbf86de5a,S.S.D. Union Toscana 2021,,swimming,2023,ITA,TOS,Toscana,FI,Firenze,15322,"Viale Europa, 103",43.8211245,11.188082
ad60e30497414fa9acdc7660,Sporting Club Pro Friuli-Venezia Giulia,,gymnastics,2001,ITA,FVG,Friuli-Venezia Giulia,TS,Trieste,02934,"Piazza Italia, 108",45.5880418,13.7845841
23ca57ce72ac4fdc894de74e,U.S.D. Union Veneto Center,,football,2025,ITA,VEN,Veneto,VE,Venezia,56444,"Via Marconi, 37",45.538955,12.4121739
23ca57ce72ac4fdc894de74e,U.S.D. Union Veneto Center,,tennis,2025,ITA,VEN,Veneto,VE,Venezia,56444,"Via Marconi, 37",45.538955,12.4121739
77c894e237b94a7d89f79b9c,Associazione Sportiva Olimpia Sardegna,,volleyball,2001,ITA,SAR,Sardegna,CA,Cagliari,63493,"Via Roma, 75",39.2595758,9.1675042
de6017eedee840b68b784079,S.S.D. Virtus Team,,padel,2018,ITA,LOM,Lombardia,MI,Milano,82183,"Piazzale dello Sport, 6",45.56318,9.0551015
b6608b84608241bdb57e08bc,Club Real 2020,,football,2014,ITA,CAM,Campania,NA,Napoli,99548,"Viale Europa, 119",40.9472119,14.2978294
3e36d0d465f74f1693c38b92,S.S.D. Real Club,,gymnastics,2017,ITA,VEN,Veneto,VE,Venezia,86717,"Via dello Sport, 79",45.4013973,12.3552898
3e36d0d465f74f1693c38b92,S.S.D. Real Club,,tennis,2017,ITA,VEN,Veneto,VE,Venezia,86717,"Via dello Sport, 79",45.4013973,12.3552898
c37bd6eb055a4f8aa8df7251,S.S.D. Ancona Team,,swimming,2006,ITA,MAR,Marche,AN,Ancona,65032,"Via dello Sport, 65",43.6835726,13.5109205
1760c8f8e3554f46bf688880,Sporting Club Roma 2020,,football,2017,ITA,LAZ,Lazio,RM,Roma,02267,"Via Leonardo da Vinci, 72",42.0224477,12.3677796
9186bebbe3a94868a26e59f0,U.S.D. Sporting 2023,,football,2025,ITA,CAM,Campania,NA,Napoli,47898,"Via Roma, 116",41.0335153,14.3418569
f276060134b544dcb965de96,Sporting Club Olimpia Bologna Sport,,athletics,2013,ITA,EMR,Emilia-Romagna,BO,Bologna,21866,"Via Mazzini, 35",44.4623824,11.2308381
5e9b6e572d104de4bda25f28,Associazione Sportiva Nuova 2020,,gymnastics,2008,ITA,TOS,Toscana,FI,Firenze,37585,"Via Garibaldi, 99",43.7162143,11.3244334
5e9b6e572d104de4bda25f28,Associazione Sportiva Nuova 2020,,football,2008,ITA,TOS,Toscana,FI,Firenze,37585,"Via Garibaldi, 99",43.7162143,11.3244334
7390459447e348358e7fccf2,Club Aurora Sport,,volleyball,2025,ITA,LIG,Liguria,GE,Genova,80457,"Viale Europa, 56",44.4264109,8.9698795
9d33f4f7472b4317a82cee44,A.C. San Marco Atletico,,martial_arts,2023,ITA,VEN,Veneto,VE,Venezia,57531,"Via Mazzini, 47",45.4173469,12.4248762
8f3b2d07b00e4db1a1d7e187,Club Libertas San Paolo Club,,athletics,2006,ITA,CAM,Campania,NA,Napoli,50695,"Via Leonardo da Vinci, 86",40.9492713,14.21557
f6af7bdd31394561ba49760f,Polisportiva Puglia Club,,volleyball,2014,ITA,PUG,Puglia,BA,Bari,89555,"Via Marconi, 57",41.1805611,16.9654302
c0914d0cad434573a33257e1,U.S.D. Virtus Italia,,padel,2009,ITA,EMR,Emilia-Romagna,BO,Bologna,27100,"Via Mazzini, 104",44.5182965,11.4703542
1d8ba9e0274649b3b4ba10e7,S.S.D. Union Italia,,tennis,2004,ITA,EMR,Emilia-Romagna,BO,Bologna,99430,"Via Roma, 115",44.4115534,11.4951808
d577545e63204176aa081842,A.C. Trento 2023,,football,2017,ITA,TAA,Trentino-Alto Adige,TN,Trento,99992,"Piazzale dello Sport, 41",46.1328198,11.1667631
d577545e63204176aa081842,A.C. Trento 2023,,basketball,2017,ITA,TAA,Trentino-Alto Adige,TN,Trento,99992,"Piazzale dello Sport, 41",46.1328198,11.1667631
be80468431fa4a2989124a99,Sporting Club Junior Pro 2022,,football,2024,ITA,UMB,Umbria,PG,Perugia,83149,"Piazza Italia, 63",43.1418978,12.4078911
65ba3cfe5c4c472fbd174845,A.C. San Marco Friuli-Venezia Giulia,,football,2022,ITA,FVG,Friuli-Venezia Giulia,TS,Trieste,55377,"Via Mazzini, 9",45.6379745,13.8640635
e0159fb880a446d5bf065e39,A.C. Union Accademia Academy,,padel,2012,ITA,LOM,Lombardia,MI,Milano,98978,"Via Leonardo da Vinci, 69",45.4856528,9.145521
9d431683060e45698debccb6,Associazione Sportiva Nuova Sicilia,,swimming,2023,ITA,SIC,Sicilia,PA,Palermo,62261,"Via Dante, 108",38.1699802,13.4295623
346c59f9cadf4abc8f9b4fe6,Sporting Club Virtus 2021,,football,2010,ITA,VEN,Veneto,VE,Venezia,99567,"Via Leonardo da Vinci, 36",45.5471083,12.3335309
346c59f9cadf4abc8f9b4fe6,Sporting Club Virtus 2021,,tennis,2010,ITA,VEN,Veneto,VE,Venezia,99567,"Via Leonardo da Vinci, 36",45.5471083,12.3335309
12d90a71030a4f9fb6185f52,Associazione Sportiva Aurora Veneto,,swimming,2007,ITA,VEN,Veneto,VE,Venezia,03671,"Via Mazzini, 108",45.4632347,12.4087277
31c010b7c166453fa0dd2064,S.S.D. Real Club,,swimming,2003,ITA,PIE,Piemonte,TO,Torino,15168,"Via Dante, 40",45.047709,7.6920683
94949c901b794a6eabde9c9b,Sporting Club Torino Italia,,martial_arts,2019,ITA,PIE,Piemonte,TO,Torino,75177,"Via Garibaldi, 102",45.1857774,7.722739
bf4bb720ab5141b6a5684a50,Club Virtus Firenze 2021,,futsal,2014,ITA,TOS,Toscana,FI,Firenze,24086,"Via Dante, 56",43.7520806,11.2356756
4c90b4a480a04996999b817f,Associazione Sportiva Junior Italia,,football,2008,ITA,SIC,Sicilia,PA,Palermo,99366,"Via Marconi, 32",38.1948211,13.3040165
eef0b8919e23437099d109c6,A.S.D. Milano 2022,,football,2019,ITA,LOM,Lombardia,MI,Milano,02330,"Via dello Sport, 72",45.5025829,9.1326463
5e183f9a87334fb3a714f7e7,Sporting Club Elite Nuova 2022,,football,2012,ITA,MAR,Marche,AN,Ancona,88026,"Via Mazzini, 40",43.5882113,13.4482712
436c06017d934fb58a5f5b9d,Sporting Club Stella Azzurra 2022,,football,2010,ITA,PIE,Piemonte,TO,Torino,71236,"Via Garibaldi, 96",45.0946521,7.7092766
8194efd9db1d491ca1f2e4dd,Associazione Sportiva San Marco Center,,football,2017,ITA,VEN,Veneto,VE,Venezia,06965,"Via Dante, 36",45.5035245,12.2478852
b010c2431f1e40c6bf854ee5,U.S.D. Elite Italia,,basketball,2001,ITA,VEN,Veneto,VE,Venezia,63616,"Via dello Sport, 111",45.4830038,12.3743543
14044ff0608c4fe498af3530,A.S.D. Olimpia Olimpia,,football,2014,ITA,CAM,Campania,NA,Napoli,78139,"Via Marconi, 39",40.769603,14.2721113
14044ff0608c4fe498af3530,A.S.D. Olimpia Olimpia,,martial_arts,2014,ITA,CAM,Campania,NA,Napoli,78139,"Via Marconi, 39",40.769603,14.2721113
14044ff0608c4fe498af3530,A.S.D. Olimpia Olimpia,,swimming,2014,ITA,CAM,Campania,NA,Napoli,78139,"Via Marconi, 39",40.769603,14.2721113
7f09e6320a11426a93724da0,S.S.D. Veneto Team,,volleyball,2013,ITA,VEN,Veneto,VE,Venezia,78832,"Via Marconi, 89",45.445807,12.3552568
8349e22444d14a75b0f44307,Polisportiva Junior Center,,swimming,2006,ITA,LOM,Lombardia,MI,Milano,72376,"Via Leonardo da Vinci, 15",45.35816,9.1008367
4466f77a0a1249cf9013a09b,U.S.D. Virtus Club,,basketball,2012,ITA,FVG,Friuli-Venezia Giulia,TS,Trieste,71776,"Via dello Sport, 65",45.5797979,13.7296897
b267ab1b65d04664bc1a5441,Sporting Club Milano Team,,cycling,2021,ITA,LOM,Lombardia,MI,Milano,06273,"Via dello Sport, 74",45.3701105,9.0139513
b267ab1b65d04664bc1a5441,Sporting Club Milano Team,,volleyball,2021,ITA,LOM,Lombardia,MI,Milano,06273,"Via dello Sport, 74",45.3701105,9.0139513
6dae7dbac44e489f8a056ac1,Associazione Sportiva San Marco Pro 2021,,basketball,2005,ITA,SIC,Sicilia,PA,Palermo,91921,"Viale Europa, 53",38.0762786,13.3537928
6dae7dbac44e489f8a056ac1,Associazione Sportiva San Marco Pro 2021,,tennis,2005,ITA,SIC,Sicilia,PA,Palermo,91921,"Viale Europa, 53",38.0762786,13.3537928
d3fb8d0e8a284b95bf0e3aaa,A.S.D. Junior Club,,martial_arts,2000,ITA,LOM,Lombardia,MI,Milano,55165,"Piazza Italia, 60",45.5156459,9.1401583
ee8eb360b44846c499854fc4,Associazione Sportiva Catanzaro Club,,basketball,2019,ITA,CAL,Calabria,CZ,Catanzaro,21758,"Via Mazzini, 91",38.9814538,16.6679219
ee8eb360b44846c499854fc4,Associazione Sportiva Catanzaro Club,,athletics,2019,ITA,CAL,Calabria,CZ,Catanzaro,21758,"Via Mazzini, 91",38.9814538,16.6679219
5d81aeec92ca41f594813585,A.C. Libertas Roma Sport,,football,2015,ITA,LAZ,Lazio,RM,Roma,73255,"Via Mazzini, 59",41.7541023,12.4927967
5d81aeec92ca41f594813585,A.C. Libertas Roma Sport,,athletics,2015,ITA,LAZ,Lazio,RM,Roma,73255,"Via Mazzini, 59",41.7541023,12.4927967
458a2b829ebb417583320c35,U.S.D. Virtus 2020,,football,2015,ITA,EMR,Emilia-Romagna,BO,Bologna,71592,"Via Dante, 58",44.4476526,11.3798133
458a2b829ebb417583320c35,U.S.D. Virtus 2020,,volleyball,2015,ITA,EMR,Emilia-Romagna,BO,Bologna,71592,"Via Dante, 58",44.4476526,11.3798133
71b21cf3afee4415879002e9,Sporting Club Junior Milano Center,,martial_arts,2023,ITA,LOM,Lombardia,MI,Milano,50968,"Via Marconi, 91",45.43311,9.2670054
68bff169d81b42d998ec7ccd,U.S.D. Elite 2023,,gymnastics,2023,ITA,LOM,Lombardia,MI,Milano,86823,"Via Dante, 53",45.5159222,9.2872616
68bff169d81b42d998ec7ccd,U.S.D. Elite 2023,,basketball,2023,ITA,LOM,Lombardia,MI,Milano,86823,"Via Dante, 53",45.5159222,9.2872616
d125e8fe7b044d05ad162c6e,Polisportiva Stella Azzurra Team,,cycling,2024,ITA,VEN,Veneto,VE,Venezia,71912,"Via Marconi, 112",45.4112242,12.3953813
d125e8fe7b044d05ad162c6e,Polisportiva Stella Azzurra Team,,tennis,2024,ITA,VEN,Veneto,VE,Venezia,71912,"Via Marconi, 112",45.4112242,12.3953813
edcf42a972694bfdb4a458e8,Polisportiva Nuova Basilicata,,athletics,2001,ITA,BAS,Basilicata,PZ,Potenza,08355,"Viale Europa, 102",40.5171052,15.8577903
64b91a3292f540469076a611,Sporting Club Pro Roma Team,,football,2004,ITA,LAZ,Lazio,RM,Roma,84611,"Via Mazzini, 60",41.8624523,12.4009494
9d18e1b464ca49e9ae22343a,Associazione Sportiva San Paolo 2022,,football,2015,ITA,LAZ,Lazio,RM,Roma,50986,"Via Garibaldi, 31",41.826598,12.3532891
9d18e1b464ca49e9ae22343a,Associazione Sportiva San Paolo 2022,,futsal,2015,ITA,LAZ,Lazio,RM,Roma,50986,"Via Garibaldi, 31",41.826598,12.3532891
9d18e1b464ca49e9ae22343a,Associazione Sportiva San Paolo 2022,,athletics,2015,ITA,LAZ,Lazio,RM,Roma,50986,"Via Garibaldi, 31",41.826598,12.3532891
8c69b727f1934e92a279e2d2,Polisportiva Aurora Piemonte,,martial_arts,2007,ITA,PIE,Piemonte,TO,Torino,47179,"Piazzale dello Sport, 103",45.1149624,7.8478076
8c69b727f1934e92a279e2d2,Polisportiva Aurora Piemonte,,cycling,2007,ITA,PIE,Piemonte,TO,Torino,47179,"Piazzale dello Sport, 103",45.1149624,7.8478076
d89810e98edf44a4bc6727dc,U.S.D. Libertas Emilia-Romagna,,athletics,2009,ITA,EMR,Emilia-Romagna,BO,Bologna,55460,"Viale Europa, 96",44.447533,11.275188
54aeea58168146e6bc9e9db1,Club San Marco 2022,,tennis,2002,ITA,EMR,Emilia-Romagna,BO,Bologna,30571,"Via Dante, 97",44.4330399,11.3618223
5c0265c2ba514d549276edea,Club Virtus Trento,,swimming,2018,ITA,TAA,Trentino-Alto Adige,TN,Trento,84695,"Via Leonardo da Vinci, 106",46.1086325,11.1969913
adc7f1ea683146198524768e,A.S.D. Stella Azzurra Nuova Team,,football,2009,ITA,VEN,Veneto,VE,Venezia,13739,"Via Marconi, 15",45.4162519,12.2584555
adc7f1ea683146198524768e,A.S.D. Stella Azzurra Nuova Team,,tennis,2009,ITA,VEN,Veneto,VE,Venezia,13739,"Via Marconi, 15",45.4162519,12.2584555
bc776cc45fcc4b07b8f0796e,Club Union Friuli-Venezia Giulia Team,,padel,2022,ITA,FVG,Friuli-Venezia Giulia,TS,Trieste,59115,"Viale Europa, 28",45.6575093,13.7665937
3a25870c6a554cad95002907,Club Lombardia Club,,padel,2020,ITA,LOM,Lombardia,MI,Milano,07629,"Piazzale dello Sport, 3",45.4090282,9.1269401
3a25870c6a554cad95002907,Club Lombardia Club,,cycling,2020,ITA,LOM,Lombardia,MI,Milano,07629,"Piazzale dello Sport, 3",45.4090282,9.1269401
648898b6325b4000af63b2e9,A.C. Real Center,,football,2000,ITA,TOS,Toscana,FI,Firenze,19964,"Via dello Sport, 110",43.7365353,11.1751848
b5e408d907e64b1eba67414e,S.S.D. Venezia 2020,,football,2004,ITA,VEN,Veneto,VE,Venezia,15896,"Via Leonardo da Vinci, 68",45.4810323,12.3996285
b1d77e9bc3f94896b02f47ce,S.S.D. Junior Academy,,futsal,2015,ITA,SIC,Sicilia,PA,Palermo,90928,"Via Leonardo da Vinci, 55",38.1214369,13.4056034
2536e806dcbf4f80b3586968,S.S.D. Stella Azzurra Sport,,volleyball,2012,ITA,CAM,Campania,NA,Napoli,39652,"Piazzale dello Sport, 68",40.9637204,14.2552468
5fa8c602b92e483e88d5aac3,S.S.D. Real Lombardia Center,,basketball,2003,ITA,LOM,Lombardia,MI,Milano,41963,"Viale Europa, 55",45.5013567,9.0347125
4f71ca0685b747f9884f86a9,Associazione Sportiva Virtus Bari Team,,athletics,2017,ITA,PUG,Puglia,BA,Bari,74608,"Via Roma, 76",41.0748602,16.8034236
132d710b95754b0b8dcac7bd,Sporting Club Atletico Club,,basketball,2015,ITA,PIE,Piemonte,TO,Torino,15184,"Via Mazzini, 109",45.1340027,7.6732426
f890df21d38d416ea4323027,Polisportiva Nuova Union,,swimming,2000,ITA,LIG,Liguria,GE,Genova,93104,"Via Dante, 35",44.4334398,8.8287213
98966b1434b6471fa4411733,U.S.D. Olimpia Palermo,,volleyball,2014,ITA,SIC,Sicilia,PA,Palermo,49503,"Viale Europa, 21",38.1882306,13.3202047
171ac8759ecc4b30be4a142b,S.S.D. Atletico Roma,,football,2015,ITA,LAZ,Lazio,RM,Roma,55287,"Piazzale dello Sport, 57",41.8473149,12.6794926
0bbb83bfa88c4733913f1d85,Sporting Club Libertas San Paolo Italia,,football,2019,ITA,LAZ,Lazio,RM,Roma,27794,"Via Roma, 1",41.9764829,12.3898361
34dbfb950b8f41b0b5dca504,Polisportiva San Paolo Roma Academy,,football,2022,ITA,LAZ,Lazio,RM,Roma,74233,"Via Mazzini, 65",41.8133702,12.3980322
c01284859f3e4cf2a5e11cbe,A.S.D. Union Team,,volleyball,2013,ITA,TOS,Toscana,FI,Firenze,54088,"Via dello Sport, 15",43.82093,11.1644151
36ba6c27f02843adb0fc46ec,Associazione Sportiva Abruzzo Team,,tennis,2009,ITA,ABR,Abruzzo,AQ,L'Aquila,44655,"Viale Europa, 29",42.281192,13.5205289
294a99ee86b84328ac6e6a95,A.C. Sporting Sport,,football,2004,ITA,SIC,Sicilia,PA,Palermo,83306,"Via Garibaldi, 23",38.0614569,13.3766449
3aa0f9b748fa48fdab42c871,Associazione Sportiva Stella Azzurra Milano,,swimming,2018,ITA,LOM,Lombardia,MI,Milano,67497,"Via Roma, 46",45.5386115,9.265957
8e194e412b2049afbae9f225,Club San Paolo Virtus Team,,volleyball,2001,ITA,CAM,Campania,NA,Napoli,75928,"Via Marconi, 117",40.8885227,14.1131625
e9a5ac0cdf8c47d7b4bbae46,U.S.D. Atletico Bari,,football,2014,ITA,PUG,Puglia,BA,Bari,69517,"Via Marconi, 68",41.0643054,16.9164702
535c005daa71400794e9e5b4,Sporting Club Union Stella Azzurra,,swimming,2003,ITA,PIE,Piemonte,TO,Torino,51667,"Piazza Italia, 87",45.0727796,7.825381
8e12f06ae267448cbd7be39c,U.S.D. Stella Azzurra Sport,,swimming,2004,ITA,LAZ,Lazio,RM,Roma,12104,"Piazzale dello Sport, 91",41.9671201,12.5797974
0f13ec5bde28438d8b7fa5fd,U.S.D. Virtus Union,,football,2024,ITA,LAZ,Lazio,RM,Roma,30693,"Via Marconi, 25",41.8630038,12.6270817
7472f5d6d8434ad79a941019,S.S.D. Atletico Stella Azzurra Sport,,football,2019,ITA,VEN,Veneto,VE,Venezia,58366,"Via Dante, 93",45.4232418,12.273948
a653b10245ed4fc6b6fda10c,Associazione Sportiva Catanzaro 2023,,martial_arts,2006,ITA,CAL,Calabria,CZ,Catanzaro,75766,"Viale Europa, 87",38.9275048,16.701855
f69ea0fc45cc4c688b80317c,Sporting Club Venezia Italia,,football,2022,ITA,VEN,Veneto,VE,Venezia,17341,"Piazza Italia, 109",45.469252,12.2704429
f69ea0fc45cc4c688b80317c,Sporting Club Venezia Italia,,basketball,2022,ITA,VEN,Veneto,VE,Venezia,17341,"Piazza Italia, 109",45.469252,12.2704429
e69a9c823dc84c9280fb1998,U.S.D. Union 2022,,tennis,2007,ITA,LAZ,Lazio,RM,Roma,13987,"Via Roma, 41",41.978935,12.445477
e69a9c823dc84c9280fb1998,U.S.D. Union 2022,,athletics,2007,ITA,LAZ,Lazio,RM,Roma,13987,"Via Roma, 41",41.978935,12.445477
c9bf04754e754e39a059faeb,U.S.D. Atletico Toscana Sport,,football,2008,ITA,TOS,Toscana,FI,Firenze,20597,"Via Mazzini, 107",43.7974941,11.3082761
117edd44b31a46f2a60b3243,S.S.D. San Paolo Molise,,swimming,2002,ITA,MOL,Molise,CB,Campobasso,66513,"Via Garibaldi, 108",41.645447,14.6819429
e9018311e02a4ddb958553d0,A.C. Olimpia Academy,,tennis,2002,ITA,PIE,Piemonte,TO,Torino,09870,"Piazza Italia, 47",45.0032871,7.7046127
391d4f2581ae423f91c0bcb3,A.S.D. Accademia 2021,,football,2011,ITA,VEN,Veneto,VE,Venezia,87127,"Via Mazzini, 94",45.4816123,12.3966031
28c809fb0819401da4bfefd6,Club Olimpia 2023,,football,2014,ITA,PIE,Piemonte,TO,Torino,24891,"Via Marconi, 81",45.1543003,7.7705561
edc42e08e09a4f888421b2e4,Associazione Sportiva Firenze Academy,,football,2015,ITA,TOS,Toscana,FI,Firenze,99735,"Via dello Sport, 5",43.7094651,11.3052381
edc42e08e09a4f888421b2e4,Associazione Sportiva Firenze Academy,,tennis,2015,ITA,TOS,Toscana,FI,Firenze,99735,"Via dello Sport, 5",43.7094651,11.3052381
ba22689bf2e04b50a4e7f0fc,A.S.D. Stella Azzurra Bari 2020,,martial_arts,2015,ITA,PUG,Puglia,BA,Bari,69062,"Via Marconi, 48",41.0572222,17.0517485
ba22689bf2e04b50a4e7f0fc,A.S.D. Stella Azzurra Bari 2020,,gymnastics,2015,ITA,PUG,Puglia,BA,Bari,69062,"Via Marconi, 48",41.0572222,17.0517485
8d03db2d827b4ae3b6e34147,Sporting Club Pro Lazio,,football,2022,ITA,LAZ,Lazio,RM,Roma,91408,"Via Leonardo da Vinci, 22",41.7747835,12.4985749
9b37fd8b05bf4d38bfde0eb7,Club Union San Marco,,tennis,2023,ITA,LOM,Lombardia,MI,Milano,19714,"Via Dante, 4",45.4617824,9.254385
51169bc830174bfc8c6e3f96,U.S.D. Virtus 2020,,volleyball,2021,ITA,TOS,Toscana,FI,Firenze,49760,"Via Marconi, 48",43.8017133,11.2376346
0778770af9cb4837ba2de4a4,Club Stella Azzurra Club,,football,2003,ITA,LOM,Lombardia,MI,Milano,35116,"Via dello Sport, 100",45.3692214,9.0481933
0778770af9cb4837ba2de4a4,Club Stella Azzurra Club,,volleyball,2003,ITA,LOM,Lombardia,MI,Milano,35116,"Via dello Sport, 100",45.3692214,9.0481933
82c589b575324f448a7dd584,Associazione Sportiva Real Cagliari Team,,athletics,2025,ITA,SAR,Sardegna,CA,Cagliari,46537,"Viale Europa, 86",39.1821856,9.1417816
37c7c88d85d243089233033e,Polisportiva Sardegna 2023,,football,2025,ITA,SAR,Sardegna,CA,Cagliari,48303,"Via Marconi, 4",39.2324996,9.0935543
ec169b626267429b9087f5d2,U.S.D. Virtus Piemonte 2021,,martial_arts,2002,ITA,PIE,Piemonte,TO,Torino,85192,"Via Dante, 41",45.0737822,7.7910985
ddad7b99103f4ef290661d65,U.S.D. Pro Campania,,volleyball,2007,ITA,CAM,Campania,NA,Napoli,38230,"Viale Europa, 67",40.88975,14.281076
ddad7b99103f4ef290661d65,U.S.D. Pro Campania,,football,2007,ITA,CAM,Campania,NA,Napoli,38230,"Viale Europa, 67",40.88975,14.281076
64d492a1565c43258a89d3a3,Polisportiva Olimpia San Paolo,,football,2004,ITA,TOS,Toscana,FI,Firenze,82851,"Via Dante, 85",43.7375908,11.2770114
1591935651bc4ff2a1e54010,A.S.D. Aurora Italia,,martial_arts,2020,ITA,SIC,Sicilia,PA,Palermo,83203,"Via Roma, 64",38.1407708,13.418506
c048025872ef44b1b6a646a2,A.C. Accademia Molise,,tennis,2010,ITA,MOL,Molise,CB,Campobasso,41970,"Piazzale dello Sport, 19",41.6283815,14.6255235
e3fcc46a236743f59b6795dd,Club Accademia Trentino-Alto Adige,,basketball,2007,ITA,TAA,Trentino-Alto Adige,TN,Trento,07632,"Via Dante, 13",46.0478975,11.1982035
6a9e403133b7457cb1899e4d,A.C. Stella Azzurra 2020,,basketball,2015,ITA,LAZ,Lazio,RM,Roma,04037,"Via dello Sport, 64",41.865245,12.5653821
14bc4fb265e243fba19018c4,A.C. Real Academy,,gymnastics,2015,ITA,CAM,Campania,NA,Napoli,02071,"Via dello Sport, 69",40.8679727,14.2600307
d6209eef231644ac9033bb45,Club Accademia Firenze,,football,2002,ITA,TOS,Toscana,FI,Firenze,60028,"Via Leonardo da Vinci, 65",43.7646392,11.3264911
4b7912f107e84cff8e11df7f,S.S.D. Olimpia 2020,,tennis,2019,ITA,SIC,Sicilia,PA,Palermo,66546,"Piazza Italia, 52",38.0919581,13.4478181
6c5b15d9028a41229c07122b,Associazione Sportiva Olimpia 2023,,swimming,2019,ITA,BAS,Basilicata,PZ,Potenza,45089,"Via dello Sport, 76",40.5097285,15.878398
5c4e620b63634817ad1bc029,Polisportiva Elite Lombardia,,volleyball,2020,ITA,LOM,Lombardia,MI,Milano,30824,"Piazzale dello Sport, 74",45.4774285,9.1714463
5c4e620b63634817ad1bc029,Polisportiva Elite Lombardia,,martial_arts,2020,ITA,LOM,Lombardia,MI,Milano,30824,"Piazzale dello Sport, 74",45.4774285,9.1714463
5c4e620b63634817ad1bc029,Polisportiva Elite Lombardia,,athletics,2020,ITA,LOM,Lombardia,MI,Milano,30824,"Piazzale dello Sport, 74",45.4774285,9.1714463
02b1ae8b787c4c0fb14b2a3a,Sporting Club Olimpia Palermo,,basketball,2013,ITA,SIC,Sicilia,PA,Palermo,66774,"Via Mazzini, 53",38.1375285,13.2841024
ad03a4179c2043f9bf1a27f2,A.S.D. Olimpia Real 2020,,football,2017,ITA,SIC,Sicilia,PA,Palermo,47437,"Viale Europa, 70",38.1880781,13.4245635
fbfbd7c331814fe485dfe426,Polisportiva Elite Club,,futsal,2009,ITA,PUG,Puglia,BA,Bari,93404,"Via Mazzini, 89",41.1735309,16.9882611
c8d10624e63a466e8c904b53,Polisportiva San Paolo Libertas 2023,,tennis,2001,ITA,LOM,Lombardia,MI,Milano,11358,"Via dello Sport, 92",45.4699509,9.1961707
c8d10624e63a466e8c904b53,Polisportiva San Paolo Libertas 2023,,martial_arts,2001,ITA,LOM,Lombardia,MI,Milano,11358,"Via dello Sport, 92",45.4699509,9.1961707
fe619bc285c4473f9e663146,Associazione Sportiva Real Club,,swimming,2007,ITA,LAZ,Lazio,RM,Roma,70604,"Via Roma, 86",41.8827128,12.4397554
919fe18b31e74cbeb85f023b,Club Elite Libertas,,futsal,2015,ITA,FVG,Friuli-Venezia Giulia,TS,Trieste,27143,"Via Marconi, 84",45.5965673,13.6800594
919fe18b31e74cbeb85f023b,Club Elite Libertas,,football,2015,ITA,FVG,Friuli-Venezia Giulia,TS,Trieste,27143,"Via Marconi, 84",45.5965673,13.6800594
f25691ba0eca49d38110d4f3,A.S.D. Nuova Academy,,cycling,2001,ITA,SIC,Sicilia,PA,Palermo,65930,"Via Leonardo da Vinci, 101",38.0930868,13.3070831
8358ad3a55cc408e94b0ad18,Polisportiva Atletico Emilia-Romagna,,tennis,2004,ITA,EMR,Emilia-Romagna,BO,Bologna,36761,"Piazza Italia, 60",44.5872508,11.4616872
8358ad3a55cc408e94b0ad18,Polisportiva Atletico Emilia-Romagna,,basketball,2004,ITA,EMR,Emilia-Romagna,BO,Bologna,36761,"Piazza Italia, 60",44.5872508,11.4616872
138dbf21f7684c018b4de77a,Associazione Sportiva San Marco 2020,,martial_arts,2020,ITA,EMR,Emilia-Romagna,BO,Bologna,57059,"Via Leonardo da Vinci, 106",44.4281617,11.2487483
24eeb42fc2c743d6845b1fe0,U.S.D. Olimpia Marche,,football,2010,ITA,MAR,Marche,AN,Ancona,95749,"Via dello Sport, 75",43.5673476,13.5338512
ba3e26e6b98c42dbb368efdd,A.C. Piemonte Club,,basketball,2022,ITA,PIE,Piemonte,TO,Torino,16389,"Via dello Sport, 89",45.0523106,7.6578656
b6e931202663490db402a76b,A.C. Nuova Puglia Sport,,swimming,2017,ITA,PUG,Puglia,BA,Bari,71453,"Via Marconi, 97",41.1881271,16.8786404
a97fcf6e269d4f01808648a5,S.S.D. Junior Firenze,,volleyball,2018,ITA,TOS,Toscana,FI,Firenze,22566,"Piazza Italia, 20",43.8238405,11.3023719
f0f0e76d376744f6b42df817,A.C. Elite Virtus,,volleyball,2001,ITA,LAZ,Lazio,RM,Roma,89181,"Piazza Italia, 60",41.9061025,12.390684
1fa1f8d2bb2b4f47a4fd0e77,A.S.D. Real 2021,,volleyball,2002,ITA,TOS,Toscana,FI,Firenze,38629,"Via Marconi, 5",43.808492,11.2291897
c1121f942c23447f996a0187,Sporting Club Sporting Lombardia 2021,,futsal,2004,ITA,LOM,Lombardia,MI,Milano,24392,"Viale Europa, 16",45.542243,9.2680397
06b3f6b33fe6469481a15333,A.C. Aurora Veneto 2022,,cycling,2011,ITA,VEN,Veneto,VE,Venezia,25704,"Via Dante, 36",45.4589588,12.2318368
9533510050dd494093f2f3b9,Sporting Club Aurora Venezia,,basketball,2001,ITA,VEN,Veneto,VE,Venezia,06798,"Via Mazzini, 95",45.5087536,12.2282112
c907e0fd97a146628adfe56f,A.S.D. Olimpia Italia,,martial_arts,2007,ITA,LOM,Lombardia,MI,Milano,19777,"Via dello Sport, 113",45.4085848,9.0760442
c7c90e1e78c34aaa8f023980,Polisportiva Atletico Pro 2021,,tennis,2012,ITA,VEN,Veneto,VE,Venezia,92266,"Piazza Italia, 41",45.4781877,12.3033901
5be8c755c9c24ae3b4dc88dc,Associazione Sportiva Nuova Lombardia Sport,,volleyball,2007,ITA,LOM,Lombardia,MI,Milano,44288,"Via dello Sport, 27",45.3873044,9.1317611
5be8c755c9c24ae3b4dc88dc,Associazione Sportiva Nuova Lombardia Sport,,futsal,2007,ITA,LOM,Lombardia,MI,Milano,44288,"Via dello Sport, 27",45.3873044,9.1317611
7f02671088de4df7902e2f57,S.S.D. Real Puglia,,football,2015,ITA,PUG,Puglia,BA,Bari,44642,"Via Mazzini, 112",41.1844452,17.0464967
7f02671088de4df7902e2f57,S.S.D. Real Puglia,,martial_arts,2015,ITA,PUG,Puglia,BA,Bari,44642,"Via Mazzini, 112",41.1844452,17.0464967
1af0a7225cf34c0d8c9112cd,A.C. Roma Italia,,football,2009,ITA,LAZ,Lazio,RM,Roma,70946,"Via Leonardo da Vinci, 60",42.0226982,12.4241327
adf34bf710aa446197e99204,Associazione Sportiva Junior 2022,,tennis,2004,ITA,PUG,Puglia,BA,Bari,73523,"Via Roma, 34",41.0616845,16.8758756
adf34bf710aa446197e99204,Associazione Sportiva Junior 2022,,volleyball,2004,ITA,PUG,Puglia,BA,Bari,73523,"Via Roma, 34",41.0616845,16.8758756
2510c82af1944485a544341c,U.S.D. Venezia 2021,,swimming,2008,ITA,VEN,Veneto,VE,Venezia,85108,"Via Marconi, 93",45.4868714,12.3043945
9e5d3677d82e4aa38c29fdc1,Club Pro Olimpia 2023,,gymnastics,2001,ITA,SIC,Sicilia,PA,Palermo,10742,"Piazza Italia, 5",38.1191243,13.3965544
1ee98bdb73a9445e88321d75,Sporting Club Olimpia Venezia,,basketball,2020,ITA,VEN,Veneto,VE,Venezia,64334,"Piazzale dello Sport, 117",45.5002323,12.3910847
d0a699a65a194df5b0698eab,Sporting Club Aurora Club,,cycling,2025,ITA,PUG,Puglia,BA,Bari,13624,"Via Dante, 14",41.0031464,16.9362744
ffdb07e2f9d242858adf7d56,Polisportiva Sporting Team,,basketball,2002,ITA,MAR,Marche,AN,Ancona,54120,"Via Roma, 12",43.5981938,13.5239562
ffdb07e2f9d242858adf7d56,Polisportiva Sporting Team,,football,2002,ITA,MAR,Marche,AN,Ancona,54120,"Via Roma, 12",43.5981938,13.5239562
a7b11690e7b947428355e1b6,A.S.D. Pro 2021,,cycling,2016,ITA,LIG,Liguria,GE,Genova,28710,"Via Roma, 30",44.4329052,8.8140287
f4c57026f87b43fda49cb06e,Polisportiva Atletico Virtus,,cycling,2006,ITA,UMB,Umbria,PG,Perugia,99599,"Piazzale dello Sport, 19",43.1538432,12.3850176
1dd3f6a101e6405bb325add0,Polisportiva Pro 2021,,athletics,2022,ITA,TOS,Toscana,FI,Firenze,98708,"Via Garibaldi, 65",43.8231354,11.335775
e87873e2cd5c44c89852ec7a,S.S.D. Stella Azzurra Academy,,basketball,2017,ITA,VEN,Veneto,VE,Venezia,25345,"Via Leonardo da Vinci, 56",45.4080545,12.3092721
5463388ab59d40de96c213d9,Polisportiva Bari Club,,martial_arts,2012,ITA,PUG,Puglia,BA,Bari,14965,"Viale Europa, 47",41.1321344,16.7799929
976f92d74e8046e69652345f,Polisportiva Libertas Napoli Sport,,volleyball,2000,ITA,CAM,Campania,NA,Napoli,73642,"Via Garibaldi, 46",41.0328881,14.2556576
94ea388d4134428eba5fa723,Sporting Club Aurora Campania,,volleyball,2007,ITA,CAM,Campania,NA,Napoli,23227,"Piazzale dello Sport, 67",40.9294131,14.2135506
d91782403cfd4db8aee8f0ed,Polisportiva Elite Bari Sport,,football,2011,ITA,PUG,Puglia,BA,Bari,95489,"Via dello Sport, 32",41.0339003,16.8441216
466d73bd40534d6b989745eb,S.S.D. Olimpia 2021,,tennis,2020,ITA,PIE,Piemonte,TO,Torino,40378,"Piazzale dello Sport, 18",45.1187613,7.6086645
466d73bd40534d6b989745eb,S.S.D. Olimpia 2021,,gymnastics,2020,ITA,PIE,Piemonte,TO,Torino,40378,"Piazzale dello Sport, 18",45.1187613,7.6086645
99c7450fbc714a5aaa6c9c90,Club Pro Lazio Club,,martial_arts,2011,ITA,LAZ,Lazio,RM,Roma,74905,"Via Garibaldi, 120",42.0341837,12.420298
99c7450fbc714a5aaa6c9c90,Club Pro Lazio Club,,tennis,2011,ITA,LAZ,Lazio,RM,Roma,74905,"Via Garibaldi, 120",42.0341837,12.420298
5d79dab88f184d31bcbb5e3d,A.S.D. Junior Emilia-Romagna,,martial_arts,2015,ITA,EMR,Emilia-Romagna,BO,Bologna,40692,"Via Dante, 82",44.6493162,11.2539782
87329a25dc2347f9bbfdabba,Sporting Club Virtus Junior 2022,,padel,2013,ITA,FVG,Friuli-Venezia Giulia,TS,Trieste,48124,"Piazza Italia, 5",45.6817326,13.8645709
8e1ac1243a304654b3629645,S.S.D. Nuova 2020,,football,2021,ITA,SAR,Sardegna,CA,Cagliari,44463,"Via Leonardo da Vinci, 97",39.2718445,9.139073
f35dfed36227426aa8964f17,Polisportiva Nuova Veneto 2020,,swimming,2004,ITA,VEN,Veneto,VE,Venezia,64277,"Viale Europa, 4",45.4645683,12.2026369
c96fb7d66e204f8e80456ffd,S.S.D. Olimpia Campania 2020,,volleyball,2003,ITA,CAM,Campania,NA,Napoli,92326,"Via Marconi, 93",40.8747926,14.4366048
5eb9d806f01b415ab1d6f46d,S.S.D. Stella Azzurra Team,,martial_arts,2013,ITA,LOM,Lombardia,MI,Milano,54090,"Via Marconi, 30",45.3667936,9.0156391
5eb9d806f01b415ab1d6f46d,S.S.D. Stella Azzurra Team,,volleyball,2013,ITA,LOM,Lombardia,MI,Milano,54090,"Via Marconi, 30",45.3667936,9.0156391
dae67fdc1747473483619353,Sporting Club Aurora Piemonte Italia,,athletics,2024,ITA,PIE,Piemonte,TO,Torino,14336,"Via Garibaldi, 74",45.0372774,7.7471924
df23a2313d314fdb99f61e54,A.C. Junior 2022,,swimming,2011,ITA,TOS,Toscana,FI,Firenze,61012,"Viale Europa, 109",43.7805334,11.2231586
f9ef5d78acc04c2598466126,Polisportiva Piemonte Team,,football,2016,ITA,PIE,Piemonte,TO,Torino,79174,"Via Leonardo da Vinci, 54",45.1627477,7.7617965
133e7feef2304d709aba3480,U.S.D. Emilia-Romagna Sport,,basketball,2011,ITA,EMR,Emilia-Romagna,BO,Bologna,18895,"Via Roma, 63",44.4959275,11.2557261
fa690ddf859049f685dc896d,Associazione Sportiva Union Emilia-Romagna 2022,,volleyball,2007,ITA,EMR,Emilia-Romagna,BO,Bologna,37025,"Via dello Sport, 5",44.495986,11.3684746
cf416d76e1a24af389e095d3,Associazione Sportiva Libertas 2023,,martial_arts,2014,ITA,FVG,Friuli-Venezia Giulia,TS,Trieste,56725,"Piazza Italia, 28",45.6077341,13.8842221
e15f002e264f48308bff4bd1,Polisportiva Atletico Campania,,baseball,2007,ITA,CAM,Campania,NA,Napoli,97680,"Via Mazzini, 104",40.9990212,14.3629709
acde273fdb2f4dc581226b66,Sporting Club Pro Torino,,volleyball,2005,ITA,PIE,Piemonte,TO,Torino,39356,"Viale Europa, 91",45.0701262,7.7632262
834efc3bc9104651acee40b0,S.S.D. Roma Club,,football,2010,ITA,LAZ,Lazio,RM,Roma,89635,"Via Mazzini, 98",41.8302029,12.6503059
a24ec8f53fa5416793b5c03d,Sporting Club Accademia Milano Team,,football,2011,ITA,LOM,Lombardia,MI,Milano,43898,"Via Marconi, 63",45.3855429,9.2213407
8985fd8895674a7faeec33b3,S.S.D. Junior Torino 2023,,basketball,2008,ITA,PIE,Piemonte,TO,Torino,38171,"Viale Europa, 107",45.1737816,7.8041502
36c9baf54b7a4a36a2841b30,Associazione Sportiva Stella Azzurra Roma Team,,padel,2014,ITA,LAZ,Lazio,RM,Roma,27518,"Via Roma, 55",41.9233801,12.5481497
0d806bee91eb423fbff7606d,Polisportiva Pro 2020,,swimming,2001,ITA,VEN,Veneto,VE,Venezia,41043,"Via Leonardo da Vinci, 81",45.5364111,12.4205369
e8223749ea714db7ba4612f5,S.S.D. Libertas Palermo,,football,2000,ITA,SIC,Sicilia,PA,Palermo,46032,"Via Roma, 90",38.1632848,13.3358462
171b169cca9a42768a4da241,U.S.D. Elite Firenze,,football,2009,ITA,TOS,Toscana,FI,Firenze,99717,"Via Dante, 49",43.8482232,11.2344628
5b05e68e30174ecdbe7f7763,S.S.D. Trentino-Alto Adige 2020,,football,2021,ITA,TAA,Trentino-Alto Adige,TN,Trento,29474,"Via Marconi, 111",46.0962364,11.1515706
39869a77141b44168ad2a370,Sporting Club Campania Sport,,football,2019,ITA,CAM,Campania,NA,Napoli,91502,"Piazzale dello Sport, 37",40.7801395,14.363356
1297de0f0eb348a9ba70f846,A.C. Abruzzo Academy,,football,2019,ITA,ABR,Abruzzo,AQ,L'Aquila,02581,"Via Garibaldi, 68",42.4117675,13.5503309
25231df73bc1495fbe20cc48,Sporting Club Sporting Veneto,,football,2001,ITA,VEN,Veneto,VE,Venezia,38550,"Via Leonardo da Vinci, 65",45.5400887,12.2329957
83a18ada1bab4ffa9b96c874,Sporting Club Virtus Team,,padel,2004,ITA,PIE,Piemonte,TO,Torino,52213,"Piazza Italia, 42",45.1002098,7.6746296
15e85d6e85784ded925d6406,S.S.D. San Paolo Union,,padel,2019,ITA,PIE,Piemonte,TO,Torino,41539,"Piazzale dello Sport, 8",45.1526448,7.7449519
5329fc88e1394975a610a6f1,A.S.D. Olimpia 2022,,martial_arts,2005,ITA,PUG,Puglia,BA,Bari,99274,"Viale Europa, 17",41.1316105,16.8114761
9cd0e5270981465ba90f09f6,A.S.D. Stella Azzurra Sicilia,,futsal,2015,ITA,SIC,Sicilia,PA,Palermo,48202,"Via Marconi, 66",38.0903147,13.427283
95f0c3c02c32455dbdaf58ed,U.S.D. Libertas Team,,football,2000,ITA,CAL,Calabria,CZ,Catanzaro,62835,"Via Mazzini, 6",39.1007759,16.5084085
fbbe31798231440182b7623b,A.S.D. Union Liguria Center,,football,2021,ITA,LIG,Liguria,GE,Genova,30253,"Via Roma, 23",44.488034,8.8447402
fbbe31798231440182b7623b,A.S.D. Union Liguria Center,,cycling,2021,ITA,LIG,Liguria,GE,Genova,30253,"Via Roma, 23",44.488034,8.8447402
824b38d7782944878a3522e7,S.S.D. Junior Toscana,,football,2018,ITA,TOS,Toscana,FI,Firenze,82620,"Via dello Sport, 95",43.8472121,11.3408159
af90488ab69a41e6912fe250,A.C. Nuova Trieste,,tennis,2000,ITA,FVG,Friuli-Venezia Giulia,TS,Trieste,87154,"Viale Europa, 1",45.6236547,13.9415573
68efa920c81243099f2b3c32,A.C. Liguria Academy,,football,2016,ITA,LIG,Liguria,GE,Genova,49823,"Via Leonardo da Vinci, 90",44.4607124,8.8768777
9b2a5c1be5b64039b9f6f9a4,U.S.D. Accademia Virtus,,futsal,2008,ITA,LOM,Lombardia,MI,Milano,52505,"Viale Europa, 119",45.5369748,9.2032697
27570573bfbf40448a7db329,Polisportiva Nuova Cagliari,,football,2013,ITA,SAR,Sardegna,CA,Cagliari,47961,"Via Garibaldi, 69",39.2603029,9.0977087
bed48f7590094292a96aa110,Polisportiva Libertas Venezia,,cycling,2022,ITA,VEN,Veneto,VE,Venezia,52936,"Via Mazzini, 46",45.4311454,12.2770769
43ae7a3780224644a6d4ddcb,U.S.D. Marche 2023,,football,2003,ITA,MAR,Marche,AN,Ancona,30135,"Via Roma, 8",43.6854367,13.4520334
ecfab251f07b44f9875b29f1,S.S.D. Napoli Team,,basketball,2010,ITA,CAM,Campania,NA,Napoli,61423,"Via Garibaldi, 6",40.997102,14.2302839
ecfab251f07b44f9875b29f1,S.S.D. Napoli Team,,football,2010,ITA,CAM,Campania,NA,Napoli,61423,"Via Garibaldi, 6",40.997102,14.2302839
16a5df5824074c458ddc253c,Sporting Club Calabria 2021,,gymnastics,2014,ITA,CAL,Calabria,CZ,Catanzaro,81492,"Via Dante, 5",39.1234461,16.6016047
4d43a661030e4e998c1060fc,Sporting Club Elite Torino Club,,football,2016,ITA,PIE,Piemonte,TO,Torino,72258,"Via Mazzini, 81",45.049157,7.6385315
7b2a7c0d2de145179a2d86ce,Club Elite Italia,,football,2007,ITA,TOS,Toscana,FI,Firenze,37822,"Via Roma, 115",43.8484105,11.3063832
e216ee14f55849a488e3c754,A.C. Pro Center,,martial_arts,2024,ITA,CAL,Calabria,CZ,Catanzaro,51911,"Via Mazzini, 74",39.147036,16.6353013
5c7237f1cf1e438e8f48badd,U.S.D. Nuova Stella Azzurra,,tennis,2004,ITA,LIG,Liguria,GE,Genova,65517,"Piazzale dello Sport, 25",44.4758833,9.0113052
6086ff184a904302aaaa46f1,A.S.D. Nuova Ancona 2023,,padel,2004,ITA,MAR,Marche,AN,Ancona,24260,"Viale Europa, 92",43.5851114,13.4075927
9cfc9459c0da4d69aeb5e73b,A.S.D. Olimpia 2023,,tennis,2009,ITA,VEN,Veneto,VE,Venezia,21644,"Viale Europa, 18",45.5266426,12.2808972
9cfc9459c0da4d69aeb5e73b,A.S.D. Olimpia 2023,,padel,2009,ITA,VEN,Veneto,VE,Venezia,21644,"Viale Europa, 18",45.5266426,12.2808972
f70df5a4432d414cb284e828,Associazione Sportiva Stella Azzurra 2023,,volleyball,2009,ITA,SIC,Sicilia,PA,Palermo,24292,"Via dello Sport, 17",38.1155303,13.3778532
49d5104ddffd40ee9d5a02c9,Sporting Club Pro 2020,,football,2010,ITA,SIC,Sicilia,PA,Palermo,46457,"Via Garibaldi, 31",38.1923182,13.4397396
96a1317f6fd14d8a89e2ce11,S.S.D. Venezia Club,,football,2003,ITA,VEN,Veneto,VE,Venezia,51585,"Via Roma, 7",45.4251831,12.4213301
591af60a30384198b498cdca,Sporting Club Elite Lombardia 2023,,basketball,2020,ITA,LOM,Lombardia,MI,Milano,60151,"Via Mazzini, 21",45.4549133,9.0582185
902c1234424e4aeab79a90bf,Club Napoli 2020,,football,2010,ITA,CAM,Campania,NA,Napoli,64273,"Piazzale dello Sport, 79",41.0037287,14.203218
902c1234424e4aeab79a90bf,Club Napoli 2020,,padel,2010,ITA,CAM,Campania,NA,Napoli,64273,"Piazzale dello Sport, 79",41.0037287,14.203218
98061336068d4d76b98df7c2,Sporting Club Cagliari 2020,,tennis,2003,ITA,SAR,Sardegna,CA,Cagliari,75943,"Via Roma, 51",39.2146985,9.1480453
98061336068d4d76b98df7c2,Sporting Club Cagliari 2020,,volleyball,2003,ITA,SAR,Sardegna,CA,Cagliari,75943,"Via Roma, 51",39.2146985,9.1480453
98061336068d4d76b98df7c2,Sporting Club Cagliari 2020,,padel,2003,ITA,SAR,Sardegna,CA,Cagliari,75943,"Via Roma, 51",39.2146985,9.1480453
f9b13b9d0ea043b3ba23911f,A.S.D. Union Molise Italia,,football,2009,ITA,MOL,Molise,CB,Campobasso,16139,"Via Garibaldi, 61",41.5981897,14.5636262
fbd80a133a6441f195729016,Polisportiva Virtus Roma 2020,,basketball,2014,ITA,LAZ,Lazio,RM,Roma,36200,"Via dello Sport, 29",41.8692402,12.5211839
9cfa99a0df1146b5a1a4df3a,S.S.D. Sporting 2021,,cycling,2013,ITA,PIE,Piemonte,TO,Torino,63236,"Piazza Italia, 88",45.0302261,7.7589413
b1f56d969c6e438e87e7513c,Sporting Club Torino 2022,,football,2021,ITA,PIE,Piemonte,TO,Torino,83211,"Via Leonardo da Vinci, 26",45.0471284,7.6396556
b1f56d969c6e438e87e7513c,Sporting Club Torino 2022,,tennis,2021,ITA,PIE,Piemonte,TO,Torino,83211,"Via Leonardo da Vinci, 26",45.0471284,7.6396556
e346cfafbb1f46d9b54a9e45,S.S.D. Virtus 2021,,volleyball,2018,ITA,EMR,Emilia-Romagna,BO,Bologna,55997,"Piazza Italia, 101",44.5487619,11.2959248
e346cfafbb1f46d9b54a9e45,S.S.D. Virtus 2021,,padel,2018,ITA,EMR,Emilia-Romagna,BO,Bologna,55997,"Piazza Italia, 101",44.5487619,11.2959248
930f9b220b9345ec9f3c6822,S.S.D. Libertas 2023,,football,2005,ITA,CAM,Campania,NA,Napoli,19855,"Via dello Sport, 52",40.7948927,14.2983079
930f9b220b9345ec9f3c6822,S.S.D. Libertas 2023,,swimming,2005,ITA,CAM,Campania,NA,Napoli,19855,"Via dello Sport, 52",40.7948927,14.2983079
0885f57e9a274bd7b18f6451,Sporting Club Stella Azzurra 2022,,football,2015,ITA,PIE,Piemonte,TO,Torino,30878,"Via Garibaldi, 112",45.1361626,7.670516
0885f57e9a274bd7b18f6451,Sporting Club Stella Azzurra 2022,,cycling,2015,ITA,PIE,Piemonte,TO,Torino,30878,"Via Garibaldi, 112",45.1361626,7.670516
35a7eb40db8344e3b712e046,Club Union Team,,padel,2015,ITA,CAM,Campania,NA,Napoli,50009,"Piazza Italia, 112",41.0422658,14.2550887
f7c963d7a52343a48c01bfe4,Polisportiva Accademia Olimpia,,gymnastics,2001,ITA,TOS,Toscana,FI,Firenze,60827,"Via Mazzini, 5",43.7772905,11.1817945
13718358c53d4fab8b078399,Club Junior Accademia,,basketball,2015,ITA,CAL,Calabria,CZ,Catanzaro,46843,"Piazzale dello Sport, 71",38.9261313,16.5196884
dd13babb9718451f9a838fb5,S.S.D. Lazio Academy,,martial_arts,2006,ITA,LAZ,Lazio,RM,Roma,54674,"Via dello Sport, 84",42.0012961,12.440531
dd13babb9718451f9a838fb5,S.S.D. Lazio Academy,,football,2006,ITA,LAZ,Lazio,RM,Roma,54674,"Via dello Sport, 84",42.0012961,12.440531
94f30ddcec75421d9dd32a8f,A.S.D. Elite Olimpia,,swimming,2022,ITA,MAR,Marche,AN,Ancona,50345,"Via dello Sport, 55",43.722926,13.5934277
8f2fa55c28b745bf8c781ff7,Polisportiva Accademia 2023,,volleyball,2021,ITA,TOS,Toscana,FI,Firenze,09367,"Via Garibaldi, 62",43.7688497,11.1936418
44a4ee1c54ad4694a11840af,Polisportiva Roma Sport,,martial_arts,2021,ITA,LAZ,Lazio,RM,Roma,04336,"Via Dante, 93",41.832945,12.463798
44a4ee1c54ad4694a11840af,Polisportiva Roma Sport,,swimming,2021,ITA,LAZ,Lazio,RM,Roma,04336,"Via Dante, 93",41.832945,12.463798
c65606fbc30a4d4da95c7ef0,Sporting Club Accademia Academy,,athletics,2020,ITA,PUG,Puglia,BA,Bari,89063,"Via Marconi, 117",41.1994938,16.8407992
405bd42cae0e40da9f480f9d,U.S.D. San Paolo Sport,,volleyball,2021,ITA,LIG,Liguria,GE,Genova,12704,"Viale Europa, 84",44.3950292,8.8424967
a1424d51fdc340a190dac2a5,Sporting Club Stella Azzurra Italia,,football,2020,ITA,EMR,Emilia-Romagna,BO,Bologna,82350,"Piazzale dello Sport, 75",44.455832,11.4614297
5a47a3ce58cd4af2a4ed5433,Sporting Club Napoli Sport,,tennis,2005,ITA,CAM,Campania,NA,Napoli,44598,"Via Garibaldi, 63",41.0168278,14.2751671
5a47a3ce58cd4af2a4ed5433,Sporting Club Napoli Sport,,rugby,2005,ITA,CAM,Campania,NA,Napoli,44598,"Via Garibaldi, 63",41.0168278,14.2751671
5a47a3ce58cd4af2a4ed5433,Sporting Club Napoli Sport,,gymnastics,2005,ITA,CAM,Campania,NA,Napoli,44598,"Via Garibaldi, 63",41.0168278,14.2751671
75c27e7de7bc4bbc9918d0ff,A.S.D. Bari Sport,,martial_arts,2019,ITA,PUG,Puglia,BA,Bari,57283,"Via Leonardo da Vinci, 82",41.0353649,16.9720746
cab96aa5d004480c90720fb1,A.S.D. Milano 2020,,football,2007,ITA,LOM,Lombardia,MI,Milano,17899,"Viale Europa, 40",45.591332,9.1341607
8360f42122874180bb9a24a7,S.S.D. Atletico 2022,,athletics,2015,ITA,CAM,Campania,NA,Napoli,25697,"Viale Europa, 97",40.9010009,14.2071403
cf81c22dd9a944a5b6e533bc,A.S.D. Nuova Sport,,volleyball,2011,ITA,EMR,Emilia-Romagna,BO,Bologna,84928,"Via Roma, 49",44.6267236,11.4436025
e1707db6096c4b2a9d7ce6aa,A.S.D. Libertas Roma Team,,football,2022,ITA,LAZ,Lazio,RM,Roma,92120,"Via Dante, 27",41.91042,12.3670054
edb6c34294eb4951a08b318a,S.S.D. San Marco Puglia,,martial_arts,2019,ITA,PUG,Puglia,BA,Bari,35471,"Via Mazzini, 100",41.0018609,16.897305
0a8e27b164ca42faaebc5fd6,Sporting Club San Paolo Firenze 2023,,athletics,2002,ITA,TOS,Toscana,FI,Firenze,76255,"Via Garibaldi, 107",43.845968,11.2215844
0a8e27b164ca42faaebc5fd6,Sporting Club San Paolo Firenze 2023,,basketball,2002,ITA,TOS,Toscana,FI,Firenze,76255,"Via Garibaldi, 107",43.845968,11.2215844
d583620e892542278f3f98d3,S.S.D. Libertas San Marco Center,,football,2021,ITA,PUG,Puglia,BA,Bari,97801,"Viale Europa, 55",41.0298289,16.7815289
d583620e892542278f3f98d3,S.S.D. Libertas San Marco Center,,basketball,2021,ITA,PUG,Puglia,BA,Bari,97801,"Viale Europa, 55",41.0298289,16.7815289
d583620e892542278f3f98d3,S.S.D. Libertas San Marco Center,,baseball,2021,ITA,PUG,Puglia,BA,Bari,97801,"Viale Europa, 55",41.0298289,16.7815289
caa4509b85414a8d906f33d9,A.S.D. Olimpia Campania 2020,,football,2003,ITA,CAM,Campania,NA,Napoli,60839,"Via Leonardo da Vinci, 52",41.0053738,14.4116022
caa4509b85414a8d906f33d9,A.S.D. Olimpia Campania 2020,,athletics,2003,ITA,CAM,Campania,NA,Napoli,60839,"Via Leonardo da Vinci, 52",41.0053738,14.4116022
dbfe0a775e6f46759feaa3c8,Sporting Club Roma Academy,,padel,2018,ITA,LAZ,Lazio,RM,Roma,81127,"Via Marconi, 24",41.8657146,12.6477351
db8c0fd58d0e474f86a84d1a,U.S.D. Elite Genova 2021,,football,2022,ITA,LIG,Liguria,GE,Genova,98468,"Piazza Italia, 99",44.4037898,8.8072041
dde46e1e3d004f6692aa284d,Club Libertas Union Center,,swimming,2017,ITA,PIE,Piemonte,TO,Torino,02526,"Piazzale dello Sport, 7",45.1130024,7.8433687
416f28565a8c4514ab712a73,Associazione Sportiva Puglia 2020,,football,2017,ITA,PUG,Puglia,BA,Bari,31801,"Via Leonardo da Vinci, 52",41.0313855,17.047096
97df4c5d96ab49ee8296b552,S.S.D. Elite Campania Team,,football,2001,ITA,CAM,Campania,NA,Napoli,01022,"Piazza Italia, 71",40.8832567,14.3005622
ac6182ca80744fa1940b59c7,Polisportiva Real Toscana,,cycling,2024,ITA,TOS,Toscana,FI,Firenze,63014,"Piazzale dello Sport, 77",43.8187675,11.3426342
860314e2f65c4b74abfde920,S.S.D. Nuova 2020,,tennis,2005,ITA,SIC,Sicilia,PA,Palermo,94959,"Via Marconi, 18",38.1044942,13.3405065
d9a6b0746c704626a6e3f518,A.C. Real Sicilia Center,,football,2020,ITA,SIC,Sicilia,PA,Palermo,60048,"Piazzale dello Sport, 16",38.1113816,13.3008579
d9a6b0746c704626a6e3f518,A.C. Real Sicilia Center,,tennis,2020,ITA,SIC,Sicilia,PA,Palermo,60048,"Piazzale dello Sport, 16",38.1113816,13.3008579
574315068ac241c4a2e1e170,Associazione Sportiva Aurora Atletico 2021,,martial_arts,2004,ITA,LOM,Lombardia,MI,Milano,87182,"Via Garibaldi, 50",45.497329,9.1764692
574315068ac241c4a2e1e170,Associazione Sportiva Aurora Atletico 2021,,padel,2004,ITA,LOM,Lombardia,MI,Milano,87182,"Via Garibaldi, 50",45.497329,9.1764692
687ddb5582414d09bafd8721,Sporting Club Union 2021,,basketball,2022,ITA,PIE,Piemonte,TO,Torino,42144,"Piazza Italia, 111",45.1765392,7.701233
687ddb5582414d09bafd8721,Sporting Club Union 2021,,football,2022,ITA,PIE,Piemonte,TO,Torino,42144,"Piazza Italia, 111",45.1765392,7.701233
687ddb5582414d09bafd8721,Sporting Club Union 2021,,tennis,2022,ITA,PIE,Piemonte,TO,Torino,42144,"Piazza Italia, 111",45.1765392,7.701233
b13f6cf34a5247f48cb250cb,A.C. San Paolo 2020,,swimming,2011,ITA,SAR,Sardegna,CA,Cagliari,77389,"Piazza Italia, 62",39.2903268,9.1448875
b13f6cf34a5247f48cb250cb,A.C. San Paolo 2020,,padel,2011,ITA,SAR,Sardegna,CA,Cagliari,77389,"Piazza Italia, 62",39.2903268,9.1448875
b13f6cf34a5247f48cb250cb,A.C. San Paolo 2020,,basketball,2011,ITA,SAR,Sardegna,CA,Cagliari,77389,"Piazza Italia, 62",39.2903268,9.1448875
b3ce9d6d6b9048ee8e877552,Polisportiva Union Aurora,,football,2008,ITA,PIE,Piemonte,TO,Torino,90573,"Via Dante, 37",45.1334314,7.6752434
ad904e41eb3048639696d68a,Polisportiva Real Friuli-Venezia Giulia,,swimming,2007,ITA,FVG,Friuli-Venezia Giulia,TS,Trieste,32142,"Piazza Italia, 50",45.7178764,13.8571785
db0e190a8aae40faa677ca03,A.S.D. Accademia Marche,,football,2024,ITA,MAR,Marche,AN,Ancona,30563,"Via Marconi, 107",43.7093667,13.5392257
bb32977d941a42e89f2a3ac6,A.C. Real Veneto,,football,2012,ITA,VEN,Veneto,VE,Venezia,37583,"Via Roma, 55",45.5056944,12.3619081
17f0b46a07fb4148a2aef808,Polisportiva Aurora Piemonte,,tennis,2020,ITA,PIE,Piemonte,TO,Torino,87755,"Piazzale dello Sport, 108",45.0260133,7.7251958
8fdf8dd244f240dab83e4fce,S.S.D. Stella Azzurra Roma,,football,2012,ITA,LAZ,Lazio,RM,Roma,29992,"Via Garibaldi, 45",41.9869725,12.5425561
00a0ad882bb84374b5677869,Polisportiva Real Elite,,basketball,2019,ITA,UMB,Umbria,PG,Perugia,06226,"Piazzale dello Sport, 32",43.1495002,12.34966
443d0fb45baa484e9c32bbdf,S.S.D. Accademia San Marco,,cycling,2001,ITA,PUG,Puglia,BA,Bari,86397,"Via dello Sport, 115",41.0641874,17.0705764
443d0fb45baa484e9c32bbdf,S.S.D. Accademia San Marco,,tennis,2001,ITA,PUG,Puglia,BA,Bari,86397,"Via dello Sport, 115",41.0641874,17.0705764
0b9486af1d9a490e80ebf189,U.S.D. Aurora Bologna Center,,football,2013,ITA,EMR,Emilia-Romagna,BO,Bologna,90921,"Via Garibaldi, 96",44.5284737,11.4844635
0b9486af1d9a490e80ebf189,U.S.D. Aurora Bologna Center,,cycling,2013,ITA,EMR,Emilia-Romagna,BO,Bologna,90921,"Via Garibaldi, 96",44.5284737,11.4844635
7af619859d574c338f202214,S.S.D. Virtus Bologna,,football,2012,ITA,EMR,Emilia-Romagna,BO,Bologna,54011,"Via Marconi, 81",44.5148063,11.2995146
c1a54e9f923148c4acdb39f0,A.S.D. Virtus Team,,football,2024,ITA,LOM,Lombardia,MI,Milano,52788,"Via Marconi, 49",45.3542227,9.2356546
c1a54e9f923148c4acdb39f0,A.S.D. Virtus Team,,martial_arts,2024,ITA,LOM,Lombardia,MI,Milano,52788,"Via Marconi, 49",45.3542227,9.2356546
66207d5e669440029bad77cf,A.C. Accademia Club,,gymnastics,2023,ITA,TOS,Toscana,FI,Firenze,73551,"Viale Europa, 2",43.7046229,11.1812647
028f9fef6084485880aafd35,Sporting Club Trento 2020,,swimming,2005,ITA,TAA,Trentino-Alto Adige,TN,Trento,81856,"Via Dante, 29",46.0212061,11.056266
fb727090af214b2fb06b6467,A.S.D. Junior Team,,athletics,2010,ITA,TOS,Toscana,FI,Firenze,88988,"Viale Europa, 17",43.7291489,11.1862716
9ab017bd8ca0482eaa4b9d0d,A.C. Stella Azzurra 2020,,football,2025,ITA,PUG,Puglia,BA,Bari,23103,"Viale Europa, 55",41.020009,16.9668305
8eea1c6d1e794fde8860183a,Sporting Club San Marco L'Aquila 2020,,tennis,2017,ITA,ABR,Abruzzo,AQ,L'Aquila,85613,"Via Garibaldi, 23",42.2615438,13.2886103
567a6d5dc7a64c5e9833bc14,U.S.D. Real San Marco,,cycling,2024,ITA,PIE,Piemonte,TO,Torino,05804,"Piazzale dello Sport, 28",45.1683586,7.8076141
567a6d5dc7a64c5e9833bc14,U.S.D. Real San Marco,,swimming,2024,ITA,PIE,Piemonte,TO,Torino,05804,"Piazzale dello Sport, 28",45.1683586,7.8076141
b5d5fb11bd0847b5a783f5a5,Associazione Sportiva Olimpia Center,,basketball,2011,ITA,MOL,Molise,CB,Campobasso,87858,"Piazza Italia, 2",41.6086939,14.799682
63062caf53cf4a3d8d0c8c8f,U.S.D. Trieste Sport,,basketball,2007,ITA,FVG,Friuli-Venezia Giulia,TS,Trieste,09239,"Via Marconi, 30",45.7428001,13.944556
677d7582d52f4211a7b5fa63,Club Accademia Lazio,,tennis,2017,ITA,LAZ,Lazio,RM,Roma,50369,"Piazzale dello Sport, 23",41.8202056,12.584005
677d7582d52f4211a7b5fa63,Club Accademia Lazio,,athletics,2017,ITA,LAZ,Lazio,RM,Roma,50369,"Piazzale dello Sport, 23",41.8202056,12.584005
677d7582d52f4211a7b5fa63,Club Accademia Lazio,,volleyball,2017,ITA,LAZ,Lazio,RM,Roma,50369,"Piazzale dello Sport, 23",41.8202056,12.584005
c5ce93886f024b7286b02cbb,S.S.D. San Marco Bari 2023,,gymnastics,2015,ITA,PUG,Puglia,BA,Bari,66776,"Piazzale dello Sport, 1",41.0730594,16.9786678
651441da5b67469b9ff6bb9b,Polisportiva Real Sport,,cycling,2013,ITA,UMB,Umbria,PG,Perugia,15855,"Viale Europa, 93",43.1159848,12.3344986
3303c8ec9c9b4c1d8e823a4f,U.S.D. Milano Academy,,football,2001,ITA,LOM,Lombardia,MI,Milano,08328,"Piazzale dello Sport, 19",45.4697037,9.0737464
1db70dc9e7ae41808b400fd8,Sporting Club Aurora Bologna Center,,basketball,2007,ITA,EMR,Emilia-Romagna,BO,Bologna,19705,"Via Leonardo da Vinci, 77",44.6306117,11.3549922
2f9b97aa3d5f46d89b9a1edd,Polisportiva Pro Toscana,,tennis,2006,ITA,TOS,Toscana,FI,Firenze,67107,"Piazza Italia, 111",43.823068,11.1863768
76ddd5e476da4a118bc8c007,U.S.D. Elite Atletico,,swimming,2017,ITA,PUG,Puglia,BA,Bari,89940,"Via Roma, 115",41.1653028,16.9619289
e1baaa682e2e45d2b5d9a056,A.S.D. Union 2021,,martial_arts,2022,ITA,PUG,Puglia,BA,Bari,56769,"Piazzale dello Sport, 13",41.1044088,16.8796321
5e4980aadb6545bc86bc4a64,S.S.D. San Paolo Campania,,martial_arts,2003,ITA,CAM,Campania,NA,Napoli,50155,"Piazza Italia, 1",40.8931424,14.1813795
4b173c1b41c14bee95bbc830,Club Libertas Italia,,volleyball,2019,ITA,PUG,Puglia,BA,Bari,53095,"Via dello Sport, 88",41.1375533,16.8605656
fe6bcf4b65ca4ee584b1c08e,Associazione Sportiva Pro Sporting 2023,,football,2022,ITA,SIC,Sicilia,PA,Palermo,19096,"Via Leonardo da Vinci, 95",38.1119842,13.4067577
fb1c9181b5d848938f1ea706,Associazione Sportiva Pro Trento 2023,,martial_arts,2021,ITA,TAA,Trentino-Alto Adige,TN,Trento,52000,"Via Roma, 21",46.0988924,11.1621721
e7b2aa36bd3d45c18fe30975,U.S.D. Elite Team,,football,2012,ITA,VEN,Veneto,VE,Venezia,87006,"Via Leonardo da Vinci, 79",45.4007936,12.2227721
3ceeb978b0b94a099d055205,U.S.D. Elite Center,,martial_arts,2022,ITA,MAR,Marche,AN,Ancona,23214,"Via Mazzini, 79",43.6923212,13.5194945
104a5fb3b464481c8199c01b,U.S.D. Virtus Puglia 2020,,football,2022,ITA,PUG,Puglia,BA,Bari,12818,"Via Garibaldi, 118",41.071948,16.9792567
4933018e3022406cbc58e962,Club Campobasso Italia,,tennis,2005,ITA,MOL,Molise,CB,Campobasso,14954,"Via Leonardo da Vinci, 65",41.6452277,14.6897785
81e266a3abde45a28bc1ee5a,S.S.D. San Marco San Marco 2022,,martial_arts,2024,ITA,PIE,Piemonte,TO,Torino,61387,"Via Marconi, 88",45.1006338,7.6519898
e0715b44493f47918e22c88a,Polisportiva Accademia Center,,tennis,2017,ITA,UMB,Umbria,PG,Perugia,35517,"Via Roma, 90",43.1793035,12.3722955
21e941c9000e4a0080119b2d,Club Virtus 2020,,volleyball,2023,ITA,FVG,Friuli-Venezia Giulia,TS,Trieste,97614,"Via Mazzini, 64",45.5686019,13.8521094
62a9b2392334457ebb2346b2,A.C. Nuova Italia,,football,2021,ITA,EMR,Emilia-Romagna,BO,Bologna,01868,"Via Marconi, 79",44.5838573,11.4618227
0e1ca760daa249dbb2115c37,Associazione Sportiva Sporting Italia,,rugby,2008,ITA,SIC,Sicilia,PA,Palermo,99326,"Via Leonardo da Vinci, 29",38.1312211,13.2584526
11ad0244a2174c389ee587df,Associazione Sportiva Atletico Piemonte Sport,,athletics,2010,ITA,PIE,Piemonte,TO,Torino,35039,"Viale Europa, 79",45.0108296,7.789781
11ad0244a2174c389ee587df,Associazione Sportiva Atletico Piemonte Sport,,basketball,2010,ITA,PIE,Piemonte,TO,Torino,35039,"Viale Europa, 79",45.0108296,7.789781
11ad0244a2174c389ee587df,Associazione Sportiva Atletico Piemonte Sport,,football,2010,ITA,PIE,Piemonte,TO,Torino,35039,"Viale Europa, 79",45.0108296,7.789781
727651fa723c46ee87a8aa4d,Club Emilia-Romagna 2021,,martial_arts,2012,ITA,EMR,Emilia-Romagna,BO,Bologna,24578,"Via dello Sport, 58",44.4657123,11.2808225
2665c8ac4dda432d85d98e3f,S.S.D. San Marco Nuova 2021,,martial_arts,2015,ITA,PIE,Piemonte,TO,Torino,56249,"Via Roma, 23",45.1958545,7.7558036
0993b374db7f423082c7a7be,Club Elite Lombardia,,athletics,2008,ITA,LOM,Lombardia,MI,Milano,83557,"Via Marconi, 108",45.5988904,9.2972865
324f9712887c4cc89d513075,Club San Marco Napoli,,swimming,2018,ITA,CAM,Campania,NA,Napoli,86082,"Piazzale dello Sport, 84",40.973378,14.1909192
7edda78fa291495db6fd03bf,Club Elite 2021,,padel,2020,ITA,MAR,Marche,AN,Ancona,83742,"Viale Europa, 54",43.7458746,13.4569217
4edd3927212b4ffc8cd43cf5,S.S.D. Pro 2020,,athletics,2012,ITA,PIE,Piemonte,TO,Torino,59313,"Via dello Sport, 114",45.0809545,7.8221219
7a06e78906854cdf8b56c76a,Associazione Sportiva Palermo Academy,,swimming,2022,ITA,SIC,Sicilia,PA,Palermo,22877,"Via Garibaldi, 27",38.1908155,13.3995791
dfcb3cfffaa64829b02025c6,Associazione Sportiva Atletico Lombardia,,swimming,2012,ITA,LOM,Lombardia,MI,Milano,33426,"Via dello Sport, 30",45.3738884,9.3278778
7777ff6df24a4601b48a9231,U.S.D. Aurora 2020,,basketball,2004,ITA,SIC,Sicilia,PA,Palermo,78441,"Piazza Italia, 23",38.1164741,13.2752823
7777ff6df24a4601b48a9231,U.S.D. Aurora 2020,,gymnastics,2004,ITA,SIC,Sicilia,PA,Palermo,78441,"Piazza Italia, 23",38.1164741,13.2752823
dee98666a9c0455cb8accf81,Sporting Club Piemonte 2023,,basketball,2008,ITA,PIE,Piemonte,TO,Torino,02383,"Via Dante, 39",45.1262095,7.7407553
81534fbb39564847a16d0ce0,Club San Paolo Elite Academy,,basketball,2007,ITA,ABR,Abruzzo,AQ,L'Aquila,49974,"Via Roma, 71",42.4038449,13.5391786
81534fbb39564847a16d0ce0,Club San Paolo Elite Academy,,football,2007,ITA,ABR,Abruzzo,AQ,L'Aquila,49974,"Via Roma, 71",42.4038449,13.5391786
db0dc295687443d090e0e18e,A.C. Pro Center,,swimming,2025,ITA,EMR,Emilia-Romagna,BO,Bologna,91954,"Piazzale dello Sport, 104",44.6205405,11.3311319
b3a32590832f47cea27cf631,Polisportiva Bari Sport,,swimming,2008,ITA,PUG,Puglia,BA,Bari,25613,"Piazzale dello Sport, 63",41.0569354,17.0100244
b37532c6b658454d92af4f33,A.S.D. Lazio Club,,athletics,2004,ITA,LAZ,Lazio,RM,Roma,29467,"Via Roma, 64",41.7956448,12.6894007
0d24c25c698e473a819582c5,Club Lazio Team,,martial_arts,2015,ITA,LAZ,Lazio,RM,Roma,33778,"Via Dante, 25",41.843473,12.6298118
ecd8338003ac4d13a460599b,A.C. Firenze Academy,,martial_arts,2006,ITA,TOS,Toscana,FI,Firenze,90318,"Via Marconi, 50",43.8242378,11.1743923
27b4030bdfbf467fb6aa2387,A.S.D. Veneto Club,,football,2003,ITA,VEN,Veneto,VE,Venezia,57906,"Via Mazzini, 82",45.5404323,12.2396529
c28e2409d21a406c8c85c660,S.S.D. Accademia Roma Academy,,football,2007,ITA,LAZ,Lazio,RM,Roma,12980,"Via Dante, 64",41.8002081,12.446635
fa6aa0d4f2fa47fabc2b304a,A.S.D. Atletico Sporting,,football,2025,ITA,PUG,Puglia,BA,Bari,58503,"Viale Europa, 104",41.0676844,17.0893781
52c74c6e5ed244a9ae661fb9,U.S.D. San Marco 2022,,basketball,2017,ITA,SIC,Sicilia,PA,Palermo,96997,"Viale Europa, 42",38.0532029,13.3255538
0a49b18fd3874e5f8b17176c,U.S.D. Virtus Club,,basketball,2016,ITA,LOM,Lombardia,MI,Milano,25318,"Via Leonardo da Vinci, 94",45.5669155,9.209538
aa2ac5d3578d4d2aa2e645fc,A.C. Stella Azzurra Virtus 2023,,athletics,2004,ITA,UMB,Umbria,PG,Perugia,43283,"Piazzale dello Sport, 37",43.1429602,12.3546113
0bba013a2ddf4015ba7da4b1,S.S.D. Milano Academy,,football,2020,ITA,LOM,Lombardia,MI,Milano,65213,"Via Leonardo da Vinci, 85",45.430506,9.0336897
c559a3edca134e5dbfe7f2eb,Club Nuova Ancona Center,,cycling,2023,ITA,MAR,Marche,AN,Ancona,49374,"Via Leonardo da Vinci, 106",43.6902628,13.4511877
c559a3edca134e5dbfe7f2eb,Club Nuova Ancona Center,,basketball,2023,ITA,MAR,Marche,AN,Ancona,49374,"Via Leonardo da Vinci, 106",43.6902628,13.4511877
169731906a6442fe914445de,A.S.D. Virtus Firenze,,football,2006,ITA,TOS,Toscana,FI,Firenze,33605,"Piazza Italia, 85",43.708745,11.2733867
072657e7655f4ea68156a0eb,Sporting Club Libertas Sporting 2022,,football,2005,ITA,PIE,Piemonte,TO,Torino,59066,"Piazza Italia, 77",45.1895007,7.717527
072657e7655f4ea68156a0eb,Sporting Club Libertas Sporting 2022,,tennis,2005,ITA,PIE,Piemonte,TO,Torino,59066,"Piazza Italia, 77",45.1895007,7.717527
126668bef95e4f83957495b8,Club Sporting 2021,,volleyball,2024,ITA,VEN,Veneto,VE,Venezia,98593,"Piazza Italia, 119",45.5353727,12.3375203
70d47e14e3dd4c8ba8f6076e,Sporting Club Aurora Lazio,,baseball,2009,ITA,LAZ,Lazio,RM,Roma,42275,"Via Mazzini, 28",42.0384955,12.5066249
7fb3d3ea515c459a8f4cd3f6,Polisportiva Olimpia 2022,,football,2007,ITA,ABR,Abruzzo,AQ,L'Aquila,40361,"Via Mazzini, 33",42.405485,13.4758877
5fe6c04335e04fe385a68b0d,S.S.D. Stella Azzurra Napoli,,football,2018,ITA,CAM,Campania,NA,Napoli,08329,"Via Leonardo da Vinci, 11",40.8699395,14.4212586
b10f3e7bc6ba4fc480104264,Sporting Club Union Venezia,,swimming,2016,ITA,VEN,Veneto,VE,Venezia,71769,"Via Roma, 41",45.4501584,12.4199481
a457400067d3435eb1f40c78,U.S.D. Atletico Piemonte,,football,2004,ITA,PIE,Piemonte,TO,Torino,63371,"Viale Europa, 11",45.0653663,7.7593306
6b44fb849496430a9e980c97,S.S.D. Union Sport,,football,2018,ITA,PIE,Piemonte,TO,Torino,81739,"Via Mazzini, 72",45.0098622,7.6697574
005f48bee7fe48a7a49ae8d9,Polisportiva Union Stella Azzurra,,tennis,2006,ITA,VEN,Veneto,VE,Venezia,78840,"Viale Europa, 45",45.4786372,12.2605788
a5d9468d8acd4ae68c8b6fd6,Club Puglia Academy,,tennis,2002,ITA,PUG,Puglia,BA,Bari,08148,"Via Garibaldi, 95",41.1539363,16.8092393
2a5367931a094c64b7c386df,Polisportiva Aurora Team,,football,2017,ITA,FVG,Friuli-Venezia Giulia,TS,Trieste,72620,"Via Mazzini, 27",45.6742005,13.6943031
b8df676e24ab4560a10f50a8,U.S.D. Aurora Accademia,,football,2022,ITA,MAR,Marche,AN,Ancona,07957,"Piazzale dello Sport, 35",43.6017316,13.4966053
19858a481b2049fb95cab21c,Polisportiva Sporting Milano Club,,tennis,2003,ITA,LOM,Lombardia,MI,Milano,79263,"Viale Europa, 63",45.5862941,9.0233092
253bcdaa9a604b76b32cd54a,Associazione Sportiva Aurora 2023,,tennis,2011,ITA,MAR,Marche,AN,Ancona,82950,"Viale Europa, 46",43.5872835,13.5001302
29c7e75fc887422eb194ec2a,Polisportiva Atletico Academy,,tennis,2004,ITA,LAZ,Lazio,RM,Roma,51096,"Via Garibaldi, 94",42.0487983,12.6925057
b69960f77bf64a388d19f05e,A.C. Union Nuova Sport,,gymnastics,2025,ITA,MAR,Marche,AN,Ancona,19102,"Via Mazzini, 111",43.685599,13.5745403
b69960f77bf64a388d19f05e,A.C. Union Nuova Sport,,tennis,2025,ITA,MAR,Marche,AN,Ancona,19102,"Via Mazzini, 111",43.685599,13.5745403
b69960f77bf64a388d19f05e,A.C. Union Nuova Sport,,volleyball,2025,ITA,MAR,Marche,AN,Ancona,19102,"Via Mazzini, 111",43.685599,13.5745403
c035bee270b54da4891f9547,U.S.D. Olimpia Italia,,volleyball,2003,ITA,LAZ,Lazio,RM,Roma,20073,"Via Dante, 41",41.9615409,12.5333319
821114c2966840d899e1792e,Sporting Club Sicilia Club,,football,2024,ITA,SIC,Sicilia,PA,Palermo,35978,"Piazzale dello Sport, 79",38.1648153,13.4260264
2014914547904f929287dab1,A.C. Torino 2022,,swimming,2011,ITA,PIE,Piemonte,TO,Torino,51785,"Via Dante, 110",45.1224724,7.7289082
842fe610201344c4959fdaea,A.S.D. Lombardia 2021,,rugby,2002,ITA,LOM,Lombardia,MI,Milano,58577,"Via Dante, 119",45.3843782,9.0676409
b96dc62e093448559198e23f,Associazione Sportiva Nuova Trentino-Alto Adige Academy,,tennis,2018,ITA,TAA,Trentino-Alto Adige,TN,Trento,69843,"Piazzale dello Sport, 69",46.0734914,11.0987343
ddb9b00d9624451a85cb1f07,S.S.D. Junior Bari Center,,football,2009,ITA,PUG,Puglia,BA,Bari,22821,"Via dello Sport, 60",41.1408225,16.7634792
ddb9b00d9624451a85cb1f07,S.S.D. Junior Bari Center,,tennis,2009,ITA,PUG,Puglia,BA,Bari,22821,"Via dello Sport, 60",41.1408225,16.7634792
ddb9b00d9624451a85cb1f07,S.S.D. Junior Bari Center,,martial_arts,2009,ITA,PUG,Puglia,BA,Bari,22821,"Via dello Sport, 60",41.1408225,16.7634792
94440849e0a3446c86c46f54,U.S.D. Junior Milano,,volleyball,2017,ITA,LOM,Lombardia,MI,Milano,55206,"Via Dante, 51",45.5032836,9.0190913
58602b4349e44414a71a0030,A.C. Lazio 2020,,football,2014,ITA,LAZ,Lazio,RM,Roma,69657,"Viale Europa, 11",41.7574736,12.5087883
8769c554e2664a8e8c470dff,U.S.D. Accademia Sport,,swimming,2004,ITA,SAR,Sardegna,CA,Cagliari,94329,"Via Dante, 99",39.2590311,9.1962787
951af39800b64a70ae580c36,Associazione Sportiva Catanzaro Sport,,martial_arts,2015,ITA,CAL,Calabria,CZ,Catanzaro,01753,"Via Marconi, 70",38.9078218,16.7055566
66edce6529a240b1a0f5507c,Associazione Sportiva Junior Piemonte,,volleyball,2017,ITA,PIE,Piemonte,TO,Torino,25227,"Via Mazzini, 7",45.0986934,7.6150622
056bd5e8398a4f90a8f5dd0f,A.S.D. San Paolo Bologna,,football,2019,ITA,EMR,Emilia-Romagna,BO,Bologna,74685,"Piazzale dello Sport, 74",44.5633192,11.2110163
29a8a8b7eebc48b2ab2baed3,A.S.D. Virtus Emilia-Romagna 2020,,martial_arts,2003,ITA,EMR,Emilia-Romagna,BO,Bologna,70081,"Via dello Sport, 43",44.5138345,11.3736899
29a8a8b7eebc48b2ab2baed3,A.S.D. Virtus Emilia-Romagna 2020,,cycling,2003,ITA,EMR,Emilia-Romagna,BO,Bologna,70081,"Via dello Sport, 43",44.5138345,11.3736899
9a8f9b16b1f74c5eb39e980f,A.S.D. Libertas Italia,,cycling,2018,ITA,LOM,Lombardia,MI,Milano,18001,"Piazzale dello Sport, 46",45.4024613,9.0731678
d2f8641dbd5a4902a5123114,Associazione Sportiva Elite Center,,football,2013,ITA,PIE,Piemonte,TO,Torino,44750,"Via Leonardo da Vinci, 6",45.0992794,7.7687554
d2f8641dbd5a4902a5123114,Associazione Sportiva Elite Center,,swimming,2013,ITA,PIE,Piemonte,TO,Torino,44750,"Via Leonardo da Vinci, 6",45.0992794,7.7687554
d2f8641dbd5a4902a5123114,Associazione Sportiva Elite Center,,cycling,2013,ITA,PIE,Piemonte,TO,Torino,44750,"Via Leonardo da Vinci, 6",45.0992794,7.7687554
16b7439158bd405891f4a80d,A.C. San Paolo Club,,tennis,2021,ITA,LIG,Liguria,GE,Genova,52910,"Viale Europa, 44",44.4709065,8.8530845
9213dcaa81d344b98a162757,U.S.D. Real Sicilia 2022,,swimming,2020,ITA,SIC,Sicilia,PA,Palermo,71381,"Via Marconi, 115",38.142399,13.2558235
4ff2b868487b42e29adb452f,A.S.D. San Paolo Stella Azzurra,,athletics,2025,ITA,UMB,Umbria,PG,Perugia,20569,"Viale Europa, 9",43.1193705,12.422125
cb7ca025ff76468c9533a03a,U.S.D. Accademia Team,,football,2013,ITA,LAZ,Lazio,RM,Roma,32148,"Via Garibaldi, 64",41.7593519,12.6942666
0b77c93044b54bea9eb51de9,Polisportiva Liguria Academy,,basketball,2006,ITA,LIG,Liguria,GE,Genova,64369,"Viale Europa, 119",44.4744186,8.8756572
0b77c93044b54bea9eb51de9,Polisportiva Liguria Academy,,football,2006,ITA,LIG,Liguria,GE,Genova,64369,"Viale Europa, 119",44.4744186,8.8756572
6110db4a3a5c41f4ac337a7a,U.S.D. Libertas Palermo Academy,,gymnastics,2009,ITA,SIC,Sicilia,PA,Palermo,78894,"Via Roma, 88",38.1285442,13.4051066
47af57fc0ef04897b8a1dd3f,S.S.D. Aurora Club,,football,2010,ITA,TAA,Trentino-Alto Adige,TN,Trento,16420,"Via Marconi, 86",46.0499935,11.1833779
2efdb9c8d1984cd7846f5095,S.S.D. Real 2020,,athletics,2007,ITA,LAZ,Lazio,RM,Roma,41812,"Via Dante, 10",41.7972488,12.3900611
5c3e7a867a5647a181b11019,U.S.D. Aurora Elite,,football,2022,ITA,PIE,Piemonte,TO,Torino,78693,"Piazzale dello Sport, 115",45.0677478,7.6830943
6d8bddc7c4eb4b719131a6b7,Club San Paolo Torino,,martial_arts,2014,ITA,PIE,Piemonte,TO,Torino,85465,"Via dello Sport, 88",45.138025,7.6837509
6d8bddc7c4eb4b719131a6b7,Club San Paolo Torino,,basketball,2014,ITA,PIE,Piemonte,TO,Torino,85465,"Via dello Sport, 88",45.138025,7.6837509
6d8bddc7c4eb4b719131a6b7,Club San Paolo Torino,,football,2014,ITA,PIE,Piemonte,TO,Torino,85465,"Via dello Sport, 88",45.138025,7.6837509
2003f84ed0844495999192b4,A.C. Sardegna 2021,,swimming,2010,ITA,SAR,Sardegna,CA,Cagliari,04966,"Via Marconi, 63",39.2198095,9.0847541
778c147df72a492287c17717,U.S.D. Sporting Italia,,tennis,2003,ITA,CAL,Calabria,CZ,Catanzaro,86124,"Viale Europa, 72",38.8395105,16.6175282
3141796f9c1f4f149fe46c6e,Sporting Club Nuova Nuova Sport,,tennis,2018,ITA,CAM,Campania,NA,Napoli,58062,"Via Leonardo da Vinci, 101",40.8406354,14.2613412
c55b88a4e59547b895678048,U.S.D. Virtus Torino Italia,,football,2009,ITA,PIE,Piemonte,TO,Torino,79415,"Via Leonardo da Vinci, 9",45.0684402,7.7582399
dffda5d1fa7f449b8a818d7d,Sporting Club Stella Azzurra Elite,,football,2024,ITA,CAM,Campania,NA,Napoli,20231,"Via Roma, 97",40.99422,14.3699702
e39eaed5bce44e36a2e49089,Associazione Sportiva Real 2020,,padel,2013,ITA,PUG,Puglia,BA,Bari,77379,"Viale Europa, 12",41.0905949,16.8520261
83bef557784c40f18d9a50b2,U.S.D. San Paolo Abruzzo,,volleyball,2003,ITA,ABR,Abruzzo,AQ,L'Aquila,05087,"Via dello Sport, 111",42.4466054,13.361679
6b161fafd69d4d4a98a25ff7,Club Friuli-Venezia Giulia 2021,,basketball,2012,ITA,FVG,Friuli-Venezia Giulia,TS,Trieste,55687,"Viale Europa, 108",45.6904444,13.7682805
c07972b28bef46c8b0c4800a,U.S.D. Virtus Academy,,basketball,2004,ITA,EMR,Emilia-Romagna,BO,Bologna,85180,"Via Garibaldi, 18",44.649364,11.4010198
338f32c2a0ff42f7aa4318e7,Sporting Club Pro Junior 2021,,football,2000,ITA,TOS,Toscana,FI,Firenze,96802,"Piazzale dello Sport, 64",43.8290229,11.3287165
5db9febb2fb147da87dbc390,Club Atletico 2022,,basketball,2004,ITA,FVG,Friuli-Venezia Giulia,TS,Trieste,99380,"Piazza Italia, 110",45.6503458,13.7732513
b90c15f5cefa455aab7c13ff,S.S.D. Nuova Team,,gymnastics,2000,ITA,SIC,Sicilia,PA,Palermo,68195,"Via Marconi, 59",38.1197404,13.2656469
5a20aa1ec4614dbaa9402a19,Club San Paolo Academy,,volleyball,2015,ITA,VDA,Valle d'Aosta,AO,Aosta,76085,"Piazzale dello Sport, 22",45.7459172,7.2997271
ae1629363c304ae0b9c8ec7d,A.S.D. San Paolo Catanzaro,,football,2000,ITA,CAL,Calabria,CZ,Catanzaro,23886,"Via Garibaldi, 78",39.1466277,16.7331135
ae1629363c304ae0b9c8ec7d,A.S.D. San Paolo Catanzaro,,cycling,2000,ITA,CAL,Calabria,CZ,Catanzaro,23886,"Via Garibaldi, 78",39.1466277,16.7331135
d6505dbcca9d400e94bb8efd,Club Pro San Marco Center,,volleyball,2002,ITA,VEN,Veneto,VE,Venezia,21204,"Via Dante, 77",45.5108451,12.3647889
4b07df3890454a068b0504f2,Sporting Club Junior Sport,,cycling,2008,ITA,TOS,Toscana,FI,Firenze,22967,"Via Garibaldi, 7",43.8129142,11.2325896
a19f23a4b6f744d99d89c50c,A.C. Lombardia Club,,basketball,2025,ITA,LOM,Lombardia,MI,Milano,89931,"Via Marconi, 49",45.469058,9.1666932
6473b3dba0d143289d3e0f0e,S.S.D. Sporting Club,,martial_arts,2018,ITA,LAZ,Lazio,RM,Roma,89511,"Via Leonardo da Vinci, 60",41.909076,12.6845548
76718216edf644ee8f42386a,A.C. Stella Azzurra Sicilia,,cycling,2003,ITA,SIC,Sicilia,PA,Palermo,90849,"Piazza Italia, 14",38.160147,13.3677449
cbc3b93c5d364654bd4fb550,A.C. Atletico Aurora,,swimming,2022,ITA,LOM,Lombardia,MI,Milano,80257,"Via Garibaldi, 12",45.4048541,9.099154
cbc3b93c5d364654bd4fb550,A.C. Atletico Aurora,,cycling,2022,ITA,LOM,Lombardia,MI,Milano,80257,"Via Garibaldi, 12",45.4048541,9.099154
adb82ef487f942d18d2ed3fb,U.S.D. Libertas Campania Club,,football,2008,ITA,CAM,Campania,NA,Napoli,88500,"Via Leonardo da Vinci, 89",40.9469184,14.414964
7e3be6a0bc7d4e6c84530e86,S.S.D. San Marco 2021,,football,2012,ITA,SIC,Sicilia,PA,Palermo,65494,"Via Dante, 83",38.0985106,13.2823932
7e3be6a0bc7d4e6c84530e86,S.S.D. San Marco 2021,,cycling,2012,ITA,SIC,Sicilia,PA,Palermo,65494,"Via Dante, 83",38.0985106,13.2823932
7e3be6a0bc7d4e6c84530e86,S.S.D. San Marco 2021,,futsal,2012,ITA,SIC,Sicilia,PA,Palermo,65494,"Via Dante, 83",38.0985106,13.2823932
d2800ee2fae6458db01b5226,S.S.D. Junior Napoli,,athletics,2000,ITA,CAM,Campania,NA,Napoli,86572,"Via Marconi, 20",40.9121896,14.2509388
56a74596132541178ede29cf,Polisportiva Olimpia Puglia,,padel,2013,ITA,PUG,Puglia,BA,Bari,96389,"Via Leonardo da Vinci, 109",41.1865787,16.982612
024768babc3a458b8aad2c87,A.S.D. Accademia Italia,,football,2020,ITA,SIC,Sicilia,PA,Palermo,71074,"Via Garibaldi, 47",38.1678073,13.3580257
a7237bd1236c45a9a7169274,Polisportiva Real Pro Academy,,football,2003,ITA,TOS,Toscana,FI,Firenze,12123,"Viale Europa, 63",43.7510094,11.3182363
30fd4fbf76424bc7857cd6c0,A.S.D. Aurora Italia,,football,2009,ITA,UMB,Umbria,PG,Perugia,59891,"Via Marconi, 69",43.1156976,12.3284197
9a977248d4434476a1970742,Club Atletico Venezia Center,,gymnastics,2002,ITA,VEN,Veneto,VE,Venezia,19558,"Via Roma, 95",45.4024627,12.2848213
9a977248d4434476a1970742,Club Atletico Venezia Center,,volleyball,2002,ITA,VEN,Veneto,VE,Venezia,19558,"Via Roma, 95",45.4024627,12.2848213
b5af04ba948745f5bd9ece6f,A.S.D. Nuova Milano,,cycling,2002,ITA,LOM,Lombardia,MI,Milano,66161,"Via Garibaldi, 15",45.3547658,9.3175126
b5af04ba948745f5bd9ece6f,A.S.D. Nuova Milano,,football,2002,ITA,LOM,Lombardia,MI,Milano,66161,"Via Garibaldi, 15",45.3547658,9.3175126
b5e8a95ce8d44a3bb1c82aba,A.C. Union 2021,,athletics,2010,ITA,PIE,Piemonte,TO,Torino,06975,"Via Mazzini, 98",45.1231257,7.568933
25a2b6d94a4f4d8284a2ac6f,U.S.D. Pro 2020,,padel,2003,ITA,PIE,Piemonte,TO,Torino,21677,"Piazzale dello Sport, 49",45.0671007,7.5862236
762d9c0b864b4592aec0e3ef,U.S.D. Abruzzo 2022,,swimming,2013,ITA,ABR,Abruzzo,AQ,L'Aquila,81024,"Via Mazzini, 23",42.3217419,13.2025398
8851fd514dce493a9ce1e36a,S.S.D. Sardegna Academy,,rugby,2019,ITA,SAR,Sardegna,CA,Cagliari,71742,"Viale Europa, 111",39.2394408,9.1575798
f7d0b3e4b1b84141b54ce612,A.C. Milano Team,,futsal,2005,ITA,LOM,Lombardia,MI,Milano,06651,"Via Dante, 86",45.466054,9.2192625
c7fc3792429a4bf496298a06,Polisportiva Stella Azzurra Catanzaro,,football,2007,ITA,CAL,Calabria,CZ,Catanzaro,76990,"Via Marconi, 76",38.9274676,16.5233564
c7fc3792429a4bf496298a06,Polisportiva Stella Azzurra Catanzaro,,martial_arts,2007,ITA,CAL,Calabria,CZ,Catanzaro,76990,"Via Marconi, 76",38.9274676,16.5233564
59c24bcf11184416a6b8fdee,Club Nuova Lazio,,tennis,2007,ITA,LAZ,Lazio,RM,Roma,77689,"Via Garibaldi, 61",41.8096254,12.5868984
1c05572ed48d4ba49fb5886b,Associazione Sportiva Pro Lombardia Sport,,swimming,2006,ITA,LOM,Lombardia,MI,Milano,05206,"Viale Europa, 17",45.5726222,9.0507294
90a9020958e548e1ae1a7311,Associazione Sportiva Cagliari 2020,,swimming,2005,ITA,SAR,Sardegna,CA,Cagliari,31107,"Piazzale dello Sport, 71",39.1589478,9.0704752
90a9020958e548e1ae1a7311,Associazione Sportiva Cagliari 2020,,martial_arts,2005,ITA,SAR,Sardegna,CA,Cagliari,31107,"Piazzale dello Sport, 71",39.1589478,9.0704752
2266fd8efa314f5cb9e2170c,A.C. Elite Campania Academy,,football,2018,ITA,CAM,Campania,NA,Napoli,78564,"Via Mazzini, 115",41.0070921,14.2712247
e68a452428904ee0a9dea210,Sporting Club Atletico Veneto,,tennis,2022,ITA,VEN,Veneto,VE,Venezia,65918,"Via Garibaldi, 58",45.5370632,12.4245629
652a0357688041d0871c1062,Sporting Club Friuli-Venezia Giulia Club,,football,2009,ITA,FVG,Friuli-Venezia Giulia,TS,Trieste,61199,"Via Dante, 91",45.6616974,13.6537269
ac95322bccc94c24a2691300,Associazione Sportiva Olimpia 2021,,tennis,2020,ITA,TAA,Trentino-Alto Adige,TN,Trento,83222,"Via Roma, 111",46.112093,11.053662
040247287bf74ad4881aafca,A.S.D. Campania Italia,,football,2023,ITA,CAM,Campania,NA,Napoli,89428,"Via Roma, 66",41.0180303,14.2165171
aa046a0fc61e41ec999f8235,Associazione Sportiva Atletico Liguria,,martial_arts,2010,ITA,LIG,Liguria,GE,Genova,15884,"Via Mazzini, 70",44.3577344,8.8957387
1a606b1a38fa495cb16d44df,A.C. Nuova Puglia Club,,football,2015,ITA,PUG,Puglia,BA,Bari,17083,"Piazza Italia, 68",41.147476,17.013297
19358693ae734cc586284e0e,Polisportiva Sporting Team,,basketball,2002,ITA,LOM,Lombardia,MI,Milano,37168,"Via Garibaldi, 22",45.4829761,9.2888827
19358693ae734cc586284e0e,Polisportiva Sporting Team,,football,2002,ITA,LOM,Lombardia,MI,Milano,37168,"Via Garibaldi, 22",45.4829761,9.2888827
2184a3fc4c984632ada415f4,A.C. Campania 2023,,basketball,2000,ITA,CAM,Campania,NA,Napoli,09250,"Via dello Sport, 25",40.7943862,14.1526743
d9e5c2d0c4e24eea963f512a,Club Union Stella Azzurra 2020,,athletics,2014,ITA,ABR,Abruzzo,AQ,L'Aquila,75350,"Via Marconi, 39",42.4004973,13.533979
3039bb6afd244eb4b14ff19e,Polisportiva Nuova Campania,,football,2019,ITA,CAM,Campania,NA,Napoli,71165,"Via Dante, 92",40.9868045,14.160108
c78308e60d594a4598a66012,U.S.D. Pro Academy,,basketball,2006,ITA,LAZ,Lazio,RM,Roma,05546,"Piazza Italia, 91",42.0419618,12.6437661
9a788cf512b0464688f8282d,Associazione Sportiva Pro Bari Academy,,martial_arts,2023,ITA,PUG,Puglia,BA,Bari,44421,"Piazza Italia, 65",41.1956045,16.8017805
9a788cf512b0464688f8282d,Associazione Sportiva Pro Bari Academy,,padel,2023,ITA,PUG,Puglia,BA,Bari,44421,"Piazza Italia, 65",41.1956045,16.8017805
3e1171b0fc0f4e36a4a3f431,U.S.D. Junior Stella Azzurra Team,,football,2007,ITA,PUG,Puglia,BA,Bari,13121,"Via Marconi, 46",41.0591114,17.0635921
3e1171b0fc0f4e36a4a3f431,U.S.D. Junior Stella Azzurra Team,,volleyball,2007,ITA,PUG,Puglia,BA,Bari,13121,"Via Marconi, 46",41.0591114,17.0635921
6dc5ada11d4647ed82cdb63a,A.C. San Marco Roma Team,,padel,2012,ITA,LAZ,Lazio,RM,Roma,42649,"Via Mazzini, 63",41.9324454,12.4183024
5899108daea140128a6eaad9,Club Accademia 2021,,football,2009,ITA,PIE,Piemonte,TO,Torino,74535,"Via Marconi, 112",45.1023112,7.5668143
3d922f633e5c4f438bd69787,Sporting Club Junior Napoli 2021,,volleyball,2006,ITA,CAM,Campania,NA,Napoli,69852,"Via dello Sport, 61",40.968356,14.2554771
6526a737dd8c4bb6a13d0475,Sporting Club Virtus Veneto Club,,basketball,2004,ITA,VEN,Veneto,VE,Venezia,51039,"Via Mazzini, 24",45.4099174,12.4400238
a78b8abac07e4ccfae7f54c0,Polisportiva Elite 2022,,football,2020,ITA,LAZ,Lazio,RM,Roma,86696,"Via Marconi, 16",41.8971757,12.6379797
b95ce3018d9849fb8b08be01,A.C. Aurora Puglia,,tennis,2013,ITA,PUG,Puglia,BA,Bari,90903,"Via dello Sport, 81",41.0575378,16.8127803
94ebcfca858843be8c5dc709,A.S.D. Pro Academy,,gymnastics,2005,ITA,LOM,Lombardia,MI,Milano,48338,"Via Roma, 35",45.5235613,9.0418543
53b2b923169c4113816f9de7,Polisportiva Virtus Center,,volleyball,2010,ITA,LOM,Lombardia,MI,Milano,90780,"Viale Europa, 106",45.5780262,9.1245945
e4c9bab2cd73431f8f5b140a,Club Firenze Academy,,tennis,2010,ITA,TOS,Toscana,FI,Firenze,29557,"Via Dante, 14",43.7407188,11.2895935
03aef1cd11974cd38795c627,S.S.D. Bologna Team,,basketball,2019,ITA,EMR,Emilia-Romagna,BO,Bologna,45832,"Piazza Italia, 98",44.4552784,11.256525
03aef1cd11974cd38795c627,S.S.D. Bologna Team,,football,2019,ITA,EMR,Emilia-Romagna,BO,Bologna,45832,"Piazza Italia, 98",44.4552784,11.256525
5e2e8bf4cc6b421fbf3b8d6b,S.S.D. Olimpia Sport,,football,2013,ITA,EMR,Emilia-Romagna,BO,Bologna,03464,"Via Garibaldi, 10",44.4761711,11.4233381
568ec21710a64b47b1303ce0,S.S.D. Atletico Team,,football,2003,ITA,SIC,Sicilia,PA,Palermo,79878,"Via Garibaldi, 118",38.1636001,13.2585034
cf455b26de4949349c50bf3d,Club Aurora Club,,cycling,2019,ITA,EMR,Emilia-Romagna,BO,Bologna,75741,"Via Mazzini, 65",44.6252937,11.2554345
8c676bac2d64493f8ff9ebad,A.C. Real Napoli,,football,2014,ITA,CAM,Campania,NA,Napoli,47507,"Via Garibaldi, 24",40.995876,14.3671354
8c676bac2d64493f8ff9ebad,A.C. Real Napoli,,basketball,2014,ITA,CAM,Campania,NA,Napoli,47507,"Via Garibaldi, 24",40.995876,14.3671354
8c676bac2d64493f8ff9ebad,A.C. Real Napoli,,athletics,2014,ITA,CAM,Campania,NA,Napoli,47507,"Via Garibaldi, 24",40.995876,14.3671354
181e7af7a05e4b3e8ee441b9,Sporting Club Libertas Venezia,,basketball,2009,ITA,VEN,Veneto,VE,Venezia,06322,"Piazza Italia, 93",45.4636138,12.3285628
c0b12f1e9a6a4cabb455cc4a,Associazione Sportiva San Paolo Napoli 2023,,cycling,2002,ITA,CAM,Campania,NA,Napoli,49161,"Via Marconi, 87",40.8981138,14.2346734
9fa644010a9a4e69b0798485,S.S.D. Accademia Junior,,tennis,2003,ITA,EMR,Emilia-Romagna,BO,Bologna,48672,"Via Dante, 9",44.6496808,11.3474945
0eae4fc39f6a4309b2576487,Sporting Club Libertas 2022,,martial_arts,2024,ITA,VEN,Veneto,VE,Venezia,63367,"Via Leonardo da Vinci, 46",45.4507947,12.3487402
678a51e3e69b4ee0a9996e8a,Polisportiva Olimpia Team,,football,2000,ITA,PUG,Puglia,BA,Bari,07927,"Via Garibaldi, 95",41.1900278,17.0956331
288539b220b94977b2f8d2c3,U.S.D. Accademia Firenze,,swimming,2015,ITA,TOS,Toscana,FI,Firenze,39477,"Via Marconi, 26",43.7747202,11.1553498
e943fbbcff784a4c9b9f609c,Club Aurora Puglia Team,,cycling,2001,ITA,PUG,Puglia,BA,Bari,73963,"Via Roma, 23",41.0980501,16.8415828
26bd6fb72f2f42978f1e34b4,U.S.D. Elite Bari Club,,football,2021,ITA,PUG,Puglia,BA,Bari,71699,"Piazza Italia, 88",41.1558765,17.0596451
fec5bcdf7c0945fea56be99c,A.S.D. Accademia Piemonte Italia,,tennis,2010,ITA,PIE,Piemonte,TO,Torino,78393,"Via Roma, 4",45.0951822,7.8063054
45c634d1c1fb4662969473de,A.S.D. Stella Azzurra 2021,,tennis,2002,ITA,CAL,Calabria,CZ,Catanzaro,45249,"Via dello Sport, 15",39.092927,16.5721069
45c634d1c1fb4662969473de,A.S.D. Stella Azzurra 2021,,football,2002,ITA,CAL,Calabria,CZ,Catanzaro,45249,"Via dello Sport, 15",39.092927,16.5721069
45c634d1c1fb4662969473de,A.S.D. Stella Azzurra 2021,,rugby,2002,ITA,CAL,Calabria,CZ,Catanzaro,45249,"Via dello Sport, 15",39.092927,16.5721069
4e967dc95ecd4e2fafeb0eb8,Sporting Club Union Bologna,,tennis,2010,ITA,EMR,Emilia-Romagna,BO,Bologna,88475,"Via Marconi, 65",44.5346042,11.2112133
4e967dc95ecd4e2fafeb0eb8,Sporting Club Union Bologna,,volleyball,2010,ITA,EMR,Emilia-Romagna,BO,Bologna,88475,"Via Marconi, 65",44.5346042,11.2112133
4e967dc95ecd4e2fafeb0eb8,Sporting Club Union Bologna,,martial_arts,2010,ITA,EMR,Emilia-Romagna,BO,Bologna,88475,"Via Marconi, 65",44.5346042,11.2112133
2bc096f2309948a3bb18f59a,Sporting Club Elite Team,,football,2012,ITA,LAZ,Lazio,RM,Roma,98371,"Via Mazzini, 80",41.9344484,12.477167
863684fe8d3643f9bb0ec0d8,Club San Marco Virtus 2023,,tennis,2009,ITA,VEN,Veneto,VE,Venezia,40309,"Piazza Italia, 103",45.507656,12.3445483
c8e130e42c1c4a19b6ee0830,Sporting Club Junior 2023,,swimming,2021,ITA,LOM,Lombardia,MI,Milano,84614,"Via Marconi, 35",45.4849869,9.0700269
c8e130e42c1c4a19b6ee0830,Sporting Club Junior 2023,,volleyball,2021,ITA,LOM,Lombardia,MI,Milano,84614,"Via Marconi, 35",45.4849869,9.0700269
adcf5fe5671a485b8290139e,Sporting Club Marche 2022,,martial_arts,2013,ITA,MAR,Marche,AN,Ancona,09444,"Via Leonardo da Vinci, 41",43.6728845,13.5538238
f59af38a77434c03bdef95ef,Polisportiva San Marco Italia,,football,2007,ITA,PUG,Puglia,BA,Bari,64620,"Via dello Sport, 60",41.1691934,16.8434272
786be740cbfa46b98f2fb4d2,A.S.D. Real Piemonte,,martial_arts,2005,ITA,PIE,Piemonte,TO,Torino,64680,"Via Roma, 93",45.0872266,7.7440766
a46d0b21316041acb21eafeb,Club San Paolo Toscana,,cycling,2007,ITA,TOS,Toscana,FI,Firenze,97269,"Via Garibaldi, 74",43.7082991,11.3293011
efb1662ca9154a0b82ffd3d9,Polisportiva Elite Milano,,football,2023,ITA,LOM,Lombardia,MI,Milano,99090,"Via Leonardo da Vinci, 104",45.3801607,9.232476
7f0b0bee39bf4cc995eace65,S.S.D. Pro Sicilia 2022,,volleyball,2011,ITA,SIC,Sicilia,PA,Palermo,72531,"Via Garibaldi, 41",38.190325,13.2936017
96875aa82c6f417fa33f210b,U.S.D. Sporting 2020,,futsal,2023,ITA,LOM,Lombardia,MI,Milano,89027,"Via Roma, 89",45.5206846,9.3371604
7978b576486f44bfa2f38f9d,Club Libertas Friuli-Venezia Giulia,,tennis,2024,ITA,FVG,Friuli-Venezia Giulia,TS,Trieste,28575,"Via Mazzini, 39",45.6605456,13.7427806
7978b576486f44bfa2f38f9d,Club Libertas Friuli-Venezia Giulia,,futsal,2024,ITA,FVG,Friuli-Venezia Giulia,TS,Trieste,28575,"Via Mazzini, 39",45.6605456,13.7427806
c3a236a51f08442487222289,Club Union Trentino-Alto Adige Team,,tennis,2022,ITA,TAA,Trentino-Alto Adige,TN,Trento,14159,"Via Leonardo da Vinci, 113",46.0240341,11.1158269
49735bf09dec4677b511030b,Club Union Toscana,,football,2020,ITA,TOS,Toscana,FI,Firenze,53515,"Via Dante, 1",43.8047723,11.2512669
a023cc59a3494a05aa6fcf4a,S.S.D. Pro Nuova Sport,,football,2023,ITA,EMR,Emilia-Romagna,BO,Bologna,23738,"Via Dante, 34",44.4763869,11.3727428
db23116ae7c84e459584b546,A.C. Virtus Puglia Sport,,padel,2017,ITA,PUG,Puglia,BA,Bari,30977,"Piazzale dello Sport, 81",41.1653537,17.029835
db23116ae7c84e459584b546,A.C. Virtus Puglia Sport,,gymnastics,2017,ITA,PUG,Puglia,BA,Bari,30977,"Piazzale dello Sport, 81",41.1653537,17.029835
a829ccaea1bd4cecb9f74d67,U.S.D. Atletico 2021,,padel,2018,ITA,VDA,Valle d'Aosta,AO,Aosta,95186,"Via Garibaldi, 2",45.7779302,7.2797399
39994032dd54474ba5f12980,Associazione Sportiva Nuova Center,,cycling,2013,ITA,MAR,Marche,AN,Ancona,29254,"Via Mazzini, 77",43.7046719,13.585657
39994032dd54474ba5f12980,Associazione Sportiva Nuova Center,,football,2013,ITA,MAR,Marche,AN,Ancona,29254,"Via Mazzini, 77",43.7046719,13.585657
700e4190e7514b5c9947fe53,Sporting Club Pro Academy,,football,2015,ITA,VEN,Veneto,VE,Venezia,43368,"Via Dante, 112",45.4424451,12.3692972
700e4190e7514b5c9947fe53,Sporting Club Pro Academy,,basketball,2015,ITA,VEN,Veneto,VE,Venezia,43368,"Via Dante, 112",45.4424451,12.3692972
700e4190e7514b5c9947fe53,Sporting Club Pro Academy,,volleyball,2015,ITA,VEN,Veneto,VE,Venezia,43368,"Via Dante, 112",45.4424451,12.3692972
67b4209de0044b65b5f9f668,Sporting Club Union Venezia,,padel,2011,ITA,VEN,Veneto,VE,Venezia,79411,"Piazzale dello Sport, 86",45.4596332,12.2530544
118a56cebfe4478581b802f0,Sporting Club Accademia 2020,,volleyball,2010,ITA,SAR,Sardegna,CA,Cagliari,12750,"Via Marconi, 17",39.2714779,9.0508041
118a56cebfe4478581b802f0,Sporting Club Accademia 2020,,football,2010,ITA,SAR,Sardegna,CA,Cagliari,12750,"Via Marconi, 17",39.2714779,9.0508041
343b3ee166e24500a32f90fe,S.S.D. Stella Azzurra 2022,,padel,2008,ITA,LAZ,Lazio,RM,Roma,35571,"Piazzale dello Sport, 107",41.9091271,12.3996285
e9da6532687245329b8cdd85,Associazione Sportiva Ancona Center,,football,2005,ITA,MAR,Marche,AN,Ancona,16207,"Via Marconi, 56",43.6371551,13.4329968
843cb9bd3bfe402999f13e90,Club Veneto Team,,football,2005,ITA,VEN,Veneto,VE,Venezia,67681,"Via Dante, 96",45.539081,12.2101979
39c11295cbfd418b8dfdcca6,A.C. Toscana Team,,swimming,2000,ITA,TOS,Toscana,FI,Firenze,90212,"Via dello Sport, 88",43.7844871,11.2826275
262f22cc62284542a001a746,S.S.D. Stella Azzurra Napoli Team,,swimming,2000,ITA,CAM,Campania,NA,Napoli,87005,"Viale Europa, 6",40.8620675,14.425202
262f22cc62284542a001a746,S.S.D. Stella Azzurra Napoli Team,,basketball,2000,ITA,CAM,Campania,NA,Napoli,87005,"Viale Europa, 6",40.8620675,14.425202
a4d150fbc336414f99badf51,U.S.D. Real Club,,martial_arts,2019,ITA,PIE,Piemonte,TO,Torino,53279,"Via Leonardo da Vinci, 12",45.0906204,7.8342255
2156395bedbe4c76a59d02db,Sporting Club Virtus Roma Sport,,football,2020,ITA,LAZ,Lazio,RM,Roma,40131,"Via Dante, 16",41.822024,12.6198071
179f26fb66b24b18998ef1d3,Polisportiva Olimpia Team,,basketball,2015,ITA,LOM,Lombardia,MI,Milano,79687,"Via dello Sport, 73",45.4580896,9.2822236
d715202039fa4bedb0e1b657,U.S.D. Union Academy,,swimming,2002,ITA,LOM,Lombardia,MI,Milano,58325,"Via dello Sport, 60",45.5391227,9.283848
d715202039fa4bedb0e1b657,U.S.D. Union Academy,,athletics,2002,ITA,LOM,Lombardia,MI,Milano,58325,"Via dello Sport, 60",45.5391227,9.283848
d715202039fa4bedb0e1b657,U.S.D. Union Academy,,padel,2002,ITA,LOM,Lombardia,MI,Milano,58325,"Via dello Sport, 60",45.5391227,9.283848
e56294f35e9f46769185d388,U.S.D. San Paolo 2021,,volleyball,2016,ITA,CAM,Campania,NA,Napoli,56694,"Via Garibaldi, 66",40.9904634,14.2051376
4087074c9f0e4d1d90a74c7e,Polisportiva Sporting San Marco,,swimming,2005,ITA,LOM,Lombardia,MI,Milano,11917,"Via Leonardo da Vinci, 6",45.4661641,9.2521085
a48c57ab8be64954b2e39aca,Associazione Sportiva Lombardia Sport,,martial_arts,2021,ITA,LOM,Lombardia,MI,Milano,71041,"Via Garibaldi, 56",45.5260946,9.1098812
4f2105b3f9984e33a371a996,Associazione Sportiva Junior Accademia Italia,,cycling,2022,ITA,ABR,Abruzzo,AQ,L'Aquila,40669,"Via Leonardo da Vinci, 103",42.2987335,13.2053218
d5315cf44de747aca1641593,A.S.D. Napoli 2022,,basketball,2025,ITA,CAM,Campania,NA,Napoli,12284,"Piazza Italia, 25",40.7905342,14.1667807
0a6c9edc184645acab4a63a7,A.S.D. Libertas Roma 2022,,cycling,2006,ITA,LAZ,Lazio,RM,Roma,52345,"Via dello Sport, 73",41.8890277,12.5158962
ce25b9fde9d34902b6368fec,Sporting Club Union Italia,,tennis,2023,ITA,CAL,Calabria,CZ,Catanzaro,89954,"Piazzale dello Sport, 120",38.802756,16.6706435
93edcc187abc4de8beb88db2,A.S.D. Aurora Union,,swimming,2003,ITA,VDA,Valle d'Aosta,AO,Aosta,85696,"Via Marconi, 80",45.7694107,7.2847859
ef63be69c9be4976a6424272,Polisportiva Lazio 2022,,volleyball,2019,ITA,LAZ,Lazio,RM,Roma,39455,"Via Marconi, 17",41.9592543,12.3572824
b5904d46cd9c47328b0ebbc0,Club Elite Center,,football,2005,ITA,SIC,Sicilia,PA,Palermo,80396,"Via Mazzini, 21",38.1085557,13.3333722
dfd97faf5a33407983a7260e,Associazione Sportiva San Paolo Milano,,tennis,2025,ITA,LOM,Lombardia,MI,Milano,57442,"Via Garibaldi, 44",45.5483706,9.3300691
dfd97faf5a33407983a7260e,Associazione Sportiva San Paolo Milano,,football,2025,ITA,LOM,Lombardia,MI,Milano,57442,"Via Garibaldi, 44",45.5483706,9.3300691
dfd97faf5a33407983a7260e,Associazione Sportiva San Paolo Milano,,swimming,2025,ITA,LOM,Lombardia,MI,Milano,57442,"Via Garibaldi, 44",45.5483706,9.3300691
29d37cd24e9143a1af180111,Associazione Sportiva San Marco Academy,,cycling,2001,ITA,CAM,Campania,NA,Napoli,60917,"Via Marconi, 103",40.8180071,14.2966935
29d37cd24e9143a1af180111,Associazione Sportiva San Marco Academy,,gymnastics,2001,ITA,CAM,Campania,NA,Napoli,60917,"Via Marconi, 103",40.8180071,14.2966935
9b2036daa31842b2b29ee319,S.S.D. Venezia Team,,football,2023,ITA,VEN,Veneto,VE,Venezia,85815,"Via Garibaldi, 20",45.5133647,12.4436649
9b2036daa31842b2b29ee319,S.S.D. Venezia Team,,basketball,2023,ITA,VEN,Veneto,VE,Venezia,85815,"Via Garibaldi, 20",45.5133647,12.4436649
4c45c4618c9f427ab0dac7cf,A.C. Junior Genova Center,,basketball,2011,ITA,LIG,Liguria,GE,Genova,83502,"Via Leonardo da Vinci, 47",44.4728741,8.8307459
abfc603b926d4c5e841c4a92,Sporting Club Nuova Puglia 2021,,padel,2014,ITA,PUG,Puglia,BA,Bari,02303,"Via Dante, 99",41.0303222,17.0137275
abfc603b926d4c5e841c4a92,Sporting Club Nuova Puglia 2021,,volleyball,2014,ITA,PUG,Puglia,BA,Bari,02303,"Via Dante, 99",41.0303222,17.0137275
eb478aba7967411a950b14b5,Club Stella Azzurra Palermo,,football,2004,ITA,SIC,Sicilia,PA,Palermo,83786,"Piazzale dello Sport, 8",38.1276023,13.2639162
303a150d9f3643d8a31a15e0,Polisportiva Union 2023,,football,2008,ITA,VEN,Veneto,VE,Venezia,20249,"Piazza Italia, 79",45.5198606,12.4189533
7b7f28763e1c4627b112eee1,Associazione Sportiva Sporting Cagliari,,tennis,2023,ITA,SAR,Sardegna,CA,Cagliari,71882,"Via Dante, 67",39.2169284,9.08077
cd88b7cb96e14e3598072816,Club Pro 2023,,martial_arts,2016,ITA,LAZ,Lazio,RM,Roma,08857,"Via Garibaldi, 94",41.7778459,12.543125
b1017e35e7824475933231be,S.S.D. Atletico Toscana,,rugby,2018,ITA,TOS,Toscana,FI,Firenze,83279,"Piazzale dello Sport, 92",43.7389635,11.2514999
cbd9695892044da2beacb1d7,Polisportiva Olimpia 2021,,volleyball,2024,ITA,PUG,Puglia,BA,Bari,13843,"Viale Europa, 59",41.1688992,16.8318433
5170ab6bec95407b91e9209a,S.S.D. Bologna 2022,,tennis,2018,ITA,EMR,Emilia-Romagna,BO,Bologna,52744,"Piazza Italia, 67",44.506423,11.3236159
fa30e0b14ed141a7972532e6,Associazione Sportiva Trento Sport,,basketball,2016,ITA,TAA,Trentino-Alto Adige,TN,Trento,92025,"Piazza Italia, 16",46.0876456,11.1454692
d9ab851475cb42aa8f5dcabe,Club Libertas Team,,football,2011,ITA,EMR,Emilia-Romagna,BO,Bologna,40748,"Via dello Sport, 48",44.5183389,11.4239489
17f42ee22a6c49ebb904de22,Sporting Club Lazio Center,,basketball,2011,ITA,LAZ,Lazio,RM,Roma,06856,"Via Garibaldi, 112",41.7583933,12.4000043
ae65c12f217e4452adcd3b94,Club Elite Italia,,basketball,2014,ITA,LOM,Lombardia,MI,Milano,96402,"Via Marconi, 20",45.4932648,9.1980174
a156563cbe604474bd40b20c,Sporting Club Accademia Lazio,,gymnastics,2022,ITA,LAZ,Lazio,RM,Roma,83589,"Via Roma, 74",41.9899435,12.5825758
a156563cbe604474bd40b20c,Sporting Club Accademia Lazio,,athletics,2022,ITA,LAZ,Lazio,RM,Roma,83589,"Via Roma, 74",41.9899435,12.5825758
3adc184ee34b4e95ae31b278,S.S.D. Virtus Real,,volleyball,2021,ITA,TOS,Toscana,FI,Firenze,03486,"Piazza Italia, 24",43.8061098,11.2622089
3adc184ee34b4e95ae31b278,S.S.D. Virtus Real,,martial_arts,2021,ITA,TOS,Toscana,FI,Firenze,03486,"Piazza Italia, 24",43.8061098,11.2622089
15d1a8974b1849a7a38be8ce,Associazione Sportiva Virtus Lazio,,padel,2005,ITA,LAZ,Lazio,RM,Roma,70193,"Via Leonardo da Vinci, 4",41.8117415,12.6403917
58637619a05f4c91b2875a5e,S.S.D. Pro Sport,,football,2021,ITA,LAZ,Lazio,RM,Roma,81540,"Via Dante, 8",41.8271533,12.3901256
17ad713ef65f4795ae7a7eef,Polisportiva Accademia Veneto Sport,,football,2007,ITA,VEN,Veneto,VE,Venezia,31997,"Piazzale dello Sport, 76",45.4272187,12.3783252
17ad713ef65f4795ae7a7eef,Polisportiva Accademia Veneto Sport,,padel,2007,ITA,VEN,Veneto,VE,Venezia,31997,"Piazzale dello Sport, 76",45.4272187,12.3783252
688aba9e4aba475dbc75344b,S.S.D. San Marco Lombardia 2022,,football,2000,ITA,LOM,Lombardia,MI,Milano,77830,"Via dello Sport, 71",45.5380975,9.134767
a987725c56ca4476adfcaccb,U.S.D. Puglia Team,,football,2005,ITA,PUG,Puglia,BA,Bari,56542,"Via Mazzini, 69",41.0492632,16.9441476
0e0a4fbc174e4f8cbdd57156,Associazione Sportiva San Paolo Venezia Academy,,football,2011,ITA,VEN,Veneto,VE,Venezia,67889,"Via Mazzini, 75",45.4832728,12.210448
a30688785557449187cf3f39,S.S.D. Lazio Team,,handball,2006,ITA,LAZ,Lazio,RM,Roma,42720,"Piazzale dello Sport, 65",41.7984249,12.5369313
d4a1195e83284a7394f554f3,Associazione Sportiva San Marco 2020,,padel,2022,ITA,UMB,Umbria,PG,Perugia,01268,"Via Dante, 83",43.1918113,12.3952755
90850c8b65154865bab64123,U.S.D. Union Piemonte,,swimming,2000,ITA,PIE,Piemonte,TO,Torino,17176,"Via Marconi, 87",45.0008558,7.5528736
60154ecf233049b39c091c55,Club Accademia Pro,,padel,2007,ITA,LIG,Liguria,GE,Genova,37848,"Via Roma, 98",44.4719172,9.0068667
b6c5c381307d408e8fec0203,Polisportiva Nuova Puglia,,gymnastics,2006,ITA,PUG,Puglia,BA,Bari,84681,"Via Roma, 26",41.1418396,16.8170291
c882755de5804e3f85bec1b1,Associazione Sportiva Real Italia,,football,2008,ITA,LOM,Lombardia,MI,Milano,30879,"Piazzale dello Sport, 110",45.5674791,9.1991858
66800fcdd8f8418bb0acb3e8,A.S.D. San Marco Trento,,tennis,2016,ITA,TAA,Trentino-Alto Adige,TN,Trento,48378,"Via Marconi, 64",46.1093348,11.0911492
66800fcdd8f8418bb0acb3e8,A.S.D. San Marco Trento,,cycling,2016,ITA,TAA,Trentino-Alto Adige,TN,Trento,48378,"Via Marconi, 64",46.1093348,11.0911492
88c22e983e774c40bc66cc3b,A.S.D. San Marco 2022,,football,2018,ITA,MAR,Marche,AN,Ancona,30573,"Via Roma, 95",43.5586929,13.5442441
15cc1467857340d29a7115c8,A.C. Real Veneto,,football,2025,ITA,VEN,Veneto,VE,Venezia,83090,"Via Roma, 76",45.463573,12.2186101
8333ed89766d4ac69c8f1efb,Associazione Sportiva Venezia 2020,,martial_arts,2018,ITA,VEN,Veneto,VE,Venezia,08954,"Via Garibaldi, 11",45.5260761,12.2617884
8333ed89766d4ac69c8f1efb,Associazione Sportiva Venezia 2020,,swimming,2018,ITA,VEN,Veneto,VE,Venezia,08954,"Via Garibaldi, 11",45.5260761,12.2617884
5786792f8f3d40d5ab7ff69f,S.S.D. Olimpia Academy,,basketball,2001,ITA,VEN,Veneto,VE,Venezia,39655,"Piazza Italia, 7",45.4566093,12.4225209
b21f9a3a76e14b98b644f115,Sporting Club Nuova Toscana 2021,,gymnastics,2010,ITA,TOS,Toscana,FI,Firenze,68792,"Via Roma, 59",43.7602525,11.2734604
d3624bd832d6465a851247af,S.S.D. Real 2023,,basketball,2005,ITA,LAZ,Lazio,RM,Roma,06776,"Via Mazzini, 18",41.8077444,12.3859414
9341bd62bcaf44929c645823,Club San Paolo 2022,,football,2016,ITA,CAL,Calabria,CZ,Catanzaro,89906,"Piazzale dello Sport, 85",38.9090834,16.6025468
f59bea78a08d4aef8a6a2e34,A.S.D. Bologna Center,,tennis,2022,ITA,EMR,Emilia-Romagna,BO,Bologna,91756,"Via Marconi, 77",44.4593468,11.4457551
c45f9c37b622410ba710670c,Polisportiva Union Roma Team,,padel,2022,ITA,LAZ,Lazio,RM,Roma,82778,"Via Mazzini, 60",41.9235232,12.6870727
c45f9c37b622410ba710670c,Polisportiva Union Roma Team,,basketball,2022,ITA,LAZ,Lazio,RM,Roma,82778,"Via Mazzini, 60",41.9235232,12.6870727
e18324037f694f73b34d3f87,Club Accademia Emilia-Romagna,,football,2003,ITA,EMR,Emilia-Romagna,BO,Bologna,58725,"Via Dante, 38",44.5201866,11.4305045
fe4936d45fe64444a69d916e,A.S.D. Bologna Club,,football,2017,ITA,EMR,Emilia-Romagna,BO,Bologna,26688,"Via Mazzini, 23",44.5464216,11.4296598
5c1c91877d9d45e8b5ead89d,A.S.D. Olimpia Team,,football,2016,ITA,ABR,Abruzzo,AQ,L'Aquila,57848,"Piazzale dello Sport, 113",42.4107204,13.5642596
5c1c91877d9d45e8b5ead89d,A.S.D. Olimpia Team,,martial_arts,2016,ITA,ABR,Abruzzo,AQ,L'Aquila,57848,"Piazzale dello Sport, 113",42.4107204,13.5642596
e551bbcda80340a1b5d99506,U.S.D. Real 2021,,basketball,2001,ITA,TAA,Trentino-Alto Adige,TN,Trento,25785,"Piazzale dello Sport, 76",46.0098066,11.0716648
5f9bfcf211d043109418d41e,A.C. Atletico Firenze 2023,,football,2021,ITA,TOS,Toscana,FI,Firenze,22945,"Piazzale dello Sport, 9",43.7441274,11.1797134
d070752386664616a9d0c321,Club Elite 2020,,basketball,2015,ITA,LOM,Lombardia,MI,Milano,53552,"Via dello Sport, 75",45.537827,9.225775
075959d035554c368f5af646,A.C. Nuova Puglia Center,,basketball,2005,ITA,PUG,Puglia,BA,Bari,73161,"Viale Europa, 33",41.1581249,16.977408
d829edb7e7a748f89fb4f4ea,Club Nuova 2023,,basketball,2025,ITA,CAM,Campania,NA,Napoli,36785,"Via Marconi, 41",40.9754868,14.2032668
64bfe44589d9449ab54c55e0,S.S.D. Sporting Lombardia,,padel,2002,ITA,LOM,Lombardia,MI,Milano,72568,"Viale Europa, 5",45.3948914,9.0818266
c60d20c338464e6292210ca6,Polisportiva Real Italia,,martial_arts,2025,ITA,EMR,Emilia-Romagna,BO,Bologna,77015,"Via Leonardo da Vinci, 52",44.4491616,11.2987724
c60d20c338464e6292210ca6,Polisportiva Real Italia,,athletics,2025,ITA,EMR,Emilia-Romagna,BO,Bologna,77015,"Via Leonardo da Vinci, 52",44.4491616,11.2987724
c60d20c338464e6292210ca6,Polisportiva Real Italia,,padel,2025,ITA,EMR,Emilia-Romagna,BO,Bologna,77015,"Via Leonardo da Vinci, 52",44.4491616,11.2987724
8a31217e21ef435faa3d98cd,U.S.D. Accademia Palermo Center,,volleyball,2014,ITA,SIC,Sicilia,PA,Palermo,12255,"Via Marconi, 44",38.0517836,13.3808182
b4a62fb0a8ab4d51b2d535d4,Sporting Club Real Lazio,,volleyball,2023,ITA,LAZ,Lazio,RM,Roma,87356,"Via Roma, 64",41.806354,12.6195459
68434a1173c341948f0068a4,Sporting Club San Paolo Stella Azzurra,,football,2019,ITA,TOS,Toscana,FI,Firenze,52234,"Piazzale dello Sport, 74",43.7509733,11.2338295
68434a1173c341948f0068a4,Sporting Club San Paolo Stella Azzurra,,padel,2019,ITA,TOS,Toscana,FI,Firenze,52234,"Piazzale dello Sport, 74",43.7509733,11.2338295
5b76b7b7d1cb45748f15e501,Sporting Club Real Venezia 2020,,football,2021,ITA,VEN,Veneto,VE,Venezia,05202,"Piazza Italia, 23",45.4306307,12.297659
8fe056b096584b888a0a288c,A.C. Toscana Center,,volleyball,2011,ITA,TOS,Toscana,FI,Firenze,23521,"Piazza Italia, 2",43.7905046,11.1553677
e95e542d533647899f0531f3,S.S.D. Olimpia Lazio Team,,gymnastics,2022,ITA,LAZ,Lazio,RM,Roma,80129,"Via Marconi, 21",42.0229437,12.4868868
e95e542d533647899f0531f3,S.S.D. Olimpia Lazio Team,,football,2022,ITA,LAZ,Lazio,RM,Roma,80129,"Via Marconi, 21",42.0229437,12.4868868
e43bd745b0a64a6d9f25a49e,Associazione Sportiva San Marco Torino Sport,,tennis,2016,ITA,PIE,Piemonte,TO,Torino,75609,"Viale Europa, 117",45.0620627,7.6108919
7aa17769833848ebbf4281c6,S.S.D. San Paolo Trentino-Alto Adige Club,,martial_arts,2007,ITA,TAA,Trentino-Alto Adige,TN,Trento,81967,"Via Dante, 116",46.0690307,11.1364199
32e9b7b65e494199958f3160,U.S.D. Accademia Academy,,football,2002,ITA,SIC,Sicilia,PA,Palermo,65682,"Via Mazzini, 117",38.1186742,13.4321666
32e9b7b65e494199958f3160,U.S.D. Accademia Academy,,gymnastics,2002,ITA,SIC,Sicilia,PA,Palermo,65682,"Via Mazzini, 117",38.1186742,13.4321666
fe3c5d3e7d244588be070983,Club Virtus Libertas 2020,,football,2014,ITA,LOM,Lombardia,MI,Milano,84737,"Via Roma, 10",45.5404652,9.0424307
da3ec7dc65054d36973e5d43,Sporting Club Real Academy,,padel,2023,ITA,SAR,Sardegna,CA,Cagliari,61470,"Via Marconi, 63",39.2624604,9.1071733
d4fe1eaa8c5d437087b9d194,Associazione Sportiva Campania Sport,,swimming,2005,ITA,CAM,Campania,NA,Napoli,02469,"Via Garibaldi, 86",40.9145286,14.1848028
d4fe1eaa8c5d437087b9d194,Associazione Sportiva Campania Sport,,football,2005,ITA,CAM,Campania,NA,Napoli,02469,"Via Garibaldi, 86",40.9145286,14.1848028
5d6d9f50c11e4f5397804455,A.C. Atletico Puglia,,football,2000,ITA,PUG,Puglia,BA,Bari,50465,"Via Roma, 99",41.0306993,16.8753304
7d13ec56ac954abfaea7c183,A.C. Real Palermo,,tennis,2021,ITA,SIC,Sicilia,PA,Palermo,22895,"Via Dante, 93",38.1893231,13.3249289
7d13ec56ac954abfaea7c183,A.C. Real Palermo,,football,2021,ITA,SIC,Sicilia,PA,Palermo,22895,"Via Dante, 93",38.1893231,13.3249289
7d13ec56ac954abfaea7c183,A.C. Real Palermo,,swimming,2021,ITA,SIC,Sicilia,PA,Palermo,22895,"Via Dante, 93",38.1893231,13.3249289
9358c74fa247474381362e55,Club Real Real 2021,,football,2005,ITA,CAL,Calabria,CZ,Catanzaro,86720,"Via Roma, 52",38.979375,16.7354685
8f8faa402bc844b1ba14bfe1,S.S.D. Roma Team,,martial_arts,2003,ITA,LAZ,Lazio,RM,Roma,75606,"Piazza Italia, 102",41.866756,12.5105716
bf5c01b91aef4f90906c3d67,Sporting Club Olimpia Bologna 2020,,football,2014,ITA,EMR,Emilia-Romagna,BO,Bologna,84963,"Via Leonardo da Vinci, 66",44.6397587,11.3799601
af42612aabf0400a802bab1b,A.S.D. Nuova Team,,basketball,2002,ITA,SIC,Sicilia,PA,Palermo,50089,"Via Roma, 18",38.125513,13.3909258
9adf15e15e1046ec9e820ce9,A.S.D. Junior 2020,,swimming,2016,ITA,LOM,Lombardia,MI,Milano,38808,"Via Leonardo da Vinci, 83",45.4005029,9.1315118
1a854c8cc115499f821183a7,Club Real Academy,,athletics,2012,ITA,SIC,Sicilia,PA,Palermo,25057,"Piazza Italia, 42",38.0843515,13.3965746
d990070be9ac4d1ba3f243bc,S.S.D. Atletico Sport,,football,2025,ITA,LOM,Lombardia,MI,Milano,67509,"Via Mazzini, 31",45.3515107,9.3044534
b2ea17ea0efd4b6aa9c43f57,A.C. Napoli Italia,,volleyball,2006,ITA,CAM,Campania,NA,Napoli,64068,"Via dello Sport, 111",40.9674967,14.209012
7d92d14f7f324949977e6c91,U.S.D. Elite Campania 2023,,cycling,2000,ITA,CAM,Campania,NA,Napoli,11909,"Via Leonardo da Vinci, 55",41.0417666,14.2393856
f6e03fb760454b6ba6769511,U.S.D. Pro 2022,,tennis,2002,ITA,SIC,Sicilia,PA,Palermo,94698,"Viale Europa, 18",38.1882299,13.3690367
752479d00d5f4d9fb7778b69,A.S.D. Sporting Lombardia 2021,,tennis,2003,ITA,LOM,Lombardia,MI,Milano,75135,"Via Leonardo da Vinci, 120",45.3886811,9.066369
752479d00d5f4d9fb7778b69,A.S.D. Sporting Lombardia 2021,,basketball,2003,ITA,LOM,Lombardia,MI,Milano,75135,"Via Leonardo da Vinci, 120",45.3886811,9.066369
752479d00d5f4d9fb7778b69,A.S.D. Sporting Lombardia 2021,,swimming,2003,ITA,LOM,Lombardia,MI,Milano,75135,"Via Leonardo da Vinci, 120",45.3886811,9.066369
f94c67fcd40247f3abf37f52,Club Elite Sporting Academy,,athletics,2020,ITA,EMR,Emilia-Romagna,BO,Bologna,88251,"Via Roma, 90",44.5907377,11.4871291
f94c67fcd40247f3abf37f52,Club Elite Sporting Academy,,football,2020,ITA,EMR,Emilia-Romagna,BO,Bologna,88251,"Via Roma, 90",44.5907377,11.4871291
28256078ad7c4a569b066993,U.S.D. Nuova Italia,,martial_arts,2012,ITA,PUG,Puglia,BA,Bari,77829,"Via Leonardo da Vinci, 91",41.0522661,16.9094148
8df0ae364d714ae6a2fa48b2,Sporting Club Pro Veneto Club,,athletics,2023,ITA,VEN,Veneto,VE,Venezia,84385,"Via Garibaldi, 14",45.4120522,12.4274873
0a937e04a8e741a78f59c9b9,Polisportiva Real Accademia,,cycling,2023,ITA,PIE,Piemonte,TO,Torino,24121,"Via Leonardo da Vinci, 22",45.1595068,7.7942684
0a937e04a8e741a78f59c9b9,Polisportiva Real Accademia,,football,2023,ITA,PIE,Piemonte,TO,Torino,24121,"Via Leonardo da Vinci, 22",45.1595068,7.7942684
0a937e04a8e741a78f59c9b9,Polisportiva Real Accademia,,athletics,2023,ITA,PIE,Piemonte,TO,Torino,24121,"Via Leonardo da Vinci, 22",45.1595068,7.7942684
055b06fdf88e49f4b3064966,U.S.D. Junior Center,,martial_arts,2006,ITA,LIG,Liguria,GE,Genova,54581,"Via dello Sport, 116",44.4556071,8.8495051
eb93896d407a4c588ee4bc30,U.S.D. Virtus Milano,,tennis,2015,ITA,LOM,Lombardia,MI,Milano,14213,"Via Marconi, 87",45.5782429,9.0382184
623e2559eef74bc79ec24654,A.S.D. Libertas Real Academy,,rugby,2015,ITA,ABR,Abruzzo,AQ,L'Aquila,45175,"Via Marconi, 97",42.2665202,13.5820855
5238ffbf71304d11942b8b8a,Club Stella Azzurra Piemonte 2021,,futsal,2025,ITA,PIE,Piemonte,TO,Torino,60889,"Via Garibaldi, 1",45.06731,7.754558
b2ab82f212b441feaa0da9d8,U.S.D. Libertas Club,,swimming,2015,ITA,TAA,Trentino-Alto Adige,TN,Trento,87537,"Piazza Italia, 53",46.0602713,11.1753132
6e095bbe1b6f42668d2e2486,Club Aurora Bologna 2020,,basketball,2025,ITA,EMR,Emilia-Romagna,BO,Bologna,57087,"Via Garibaldi, 45",44.6465454,11.4872641
68f6120b81ab4c8d8402dc16,S.S.D. San Paolo Center,,gymnastics,2015,ITA,VEN,Veneto,VE,Venezia,89219,"Via Garibaldi, 39",45.5412216,12.3190305
68f6120b81ab4c8d8402dc16,S.S.D. San Paolo Center,,martial_arts,2015,ITA,VEN,Veneto,VE,Venezia,89219,"Via Garibaldi, 39",45.5412216,12.3190305
4b5863add57c42babc53871c,Associazione Sportiva Elite 2023,,football,2022,ITA,VEN,Veneto,VE,Venezia,58002,"Via Garibaldi, 14",45.5480829,12.3167008
cd64b21047c740a7a7697afe,Club Accademia Venezia Club,,swimming,2015,ITA,VEN,Veneto,VE,Venezia,91673,"Via Garibaldi, 102",45.4043833,12.4322509
cd64b21047c740a7a7697afe,Club Accademia Venezia Club,,padel,2015,ITA,VEN,Veneto,VE,Venezia,91673,"Via Garibaldi, 102",45.4043833,12.4322509
164a0381024549e299fdfa3d,S.S.D. Stella Azzurra Accademia 2021,,football,2002,ITA,LAZ,Lazio,RM,Roma,45595,"Via Garibaldi, 12",41.8171419,12.5515902
